[
  {
    "name": "Tekir Eczanesi",
    "specialty": "Pharmacy",
    "address": "Cumhuriyet Caddesi , Adana",
    "latitude": 36.9948563,
    "longitude": 35.3149771,
    "country_code": "TR",
    "is_active": true,
    "review_count": 0,
    "rating_overall": 0
  },
  {
    "name": "Onur Eczanesi",
    "specialty": "Pharmacy",
    "address": "Cumhuriyet Caddesi , Adana",
    "latitude": 36.9948699,
    "longitude": 35.3151512,
    "country_code": "TR",
    "is_active": true,
    "review_count": 0,
    "rating_overall": 0
  },
  {
    "name": "Sifa Eczanesi",
    "specialty": "Pharmacy",
    "address": "Adana, Adana",
    "latitude": 36.9948481,
    "longitude": 35.3153685,
    "country_code": "TR",
    "is_active": true,
    "review_count": 0,
    "rating_overall": 0
  },
  {
    "name": "Yener Eczanesi",
    "specialty": "Pharmacy",
    "address": "Cumhuriyet Caddesi , Adana",
    "latitude": 36.9948779,
    "longitude": 35.3155725,
    "country_code": "TR",
    "is_active": true,
    "review_count": 0,
    "rating_overall": 0
  },
  {
    "name": "Bilgehan Özkan Eczanesi",
    "specialty": "Pharmacy",
    "address": ", Adana",
    "latitude": 36.9874944,
    "longitude": 35.3149253,
    "country_code": "TR",
    "is_active": true,
    "review_count": 0,
    "rating_overall": 0
  },
  {
    "name": "Yalçın Eczanesi",
    "specialty": "Pharmacy",
    "address": "Adana, Adana",
    "latitude": 36.9875334,
    "longitude": 35.3151895,
    "country_code": "TR",
    "is_active": true,
    "review_count": 0,
    "rating_overall": 0
  },
  {
    "name": "Orkide Eczanesi",
    "specialty": "Pharmacy",
    "address": ", Adana",
    "latitude": 36.9875529,
    "longitude": 35.3154416,
    "country_code": "TR",
    "is_active": true,
    "review_count": 0,
    "rating_overall": 0
  },
  {
    "name": "Aydın Eczanesi",
    "specialty": "Pharmacy",
    "address": "Adana, Adana",
    "latitude": 36.9875846,
    "longitude": 35.3157081,
    "country_code": "TR",
    "is_active": true,
    "review_count": 0,
    "rating_overall": 0
  },
  {
    "name": "Doğumevi Eczanesi",
    "specialty": "Pharmacy",
    "address": ", Adana",
    "latitude": 36.9874385,
    "longitude": 35.3171583,
    "country_code": "TR",
    "is_active": true,
    "review_count": 0,
    "rating_overall": 0
  },
  {
    "name": "Özel Estetik Ağız ve Diş Sağlığı Polikinliği",
    "specialty": "Dentist",
    "address": ", Adana",
    "latitude": 36.99494,
    "longitude": 35.3195222,
    "country_code": "TR",
    "is_active": true,
    "review_count": 0,
    "rating_overall": 0
  },
  {
    "name": "Ege Eczanesi",
    "specialty": "Pharmacy",
    "address": "Turgut Özal Bulvarı , Adana",
    "latitude": 37.0517327,
    "longitude": 35.254456,
    "country_code": "TR",
    "is_active": true,
    "review_count": 0,
    "rating_overall": 0
  },
  {
    "name": "Arhan Eczanesi",
    "specialty": "Pharmacy",
    "address": ", Adana",
    "latitude": 37.0236204,
    "longitude": 35.2813431,
    "country_code": "TR",
    "is_active": true,
    "review_count": 0,
    "rating_overall": 0
  },
  {
    "name": "Gulen Eczanesi",
    "specialty": "Pharmacy",
    "address": "Adana, Adana",
    "latitude": 37.034761,
    "longitude": 35.3074162,
    "country_code": "TR",
    "is_active": true,
    "review_count": 0,
    "rating_overall": 0
  },
  {
    "name": "Aşkar Eczanesi",
    "specialty": "Pharmacy",
    "address": "Kenan Evren Bulvarı , Adana",
    "latitude": 37.0353853,
    "longitude": 35.3074917,
    "country_code": "TR",
    "is_active": true,
    "review_count": 0,
    "rating_overall": 0
  },
  {
    "name": "Aslı Eczanesi",
    "specialty": "Pharmacy",
    "address": ", Adana",
    "latitude": 37.0198288,
    "longitude": 35.3202621,
    "country_code": "TR",
    "is_active": true,
    "review_count": 0,
    "rating_overall": 0
  },
  {
    "name": "Ekin Eczanesi",
    "specialty": "Pharmacy",
    "address": ", Adana",
    "latitude": 37.019771,
    "longitude": 35.3203053,
    "country_code": "TR",
    "is_active": true,
    "review_count": 0,
    "rating_overall": 0
  },
  {
    "name": "Nida Eczanesi",
    "specialty": "Pharmacy",
    "address": ", Adana",
    "latitude": 37.019601,
    "longitude": 35.32046,
    "country_code": "TR",
    "is_active": true,
    "review_count": 0,
    "rating_overall": 0
  },
  {
    "name": "Köşe Eczanesi",
    "specialty": "Pharmacy",
    "address": ", Adana",
    "latitude": 37.0207634,
    "longitude": 35.319957,
    "country_code": "TR",
    "is_active": true,
    "review_count": 0,
    "rating_overall": 0
  },
  {
    "name": "Aladağ Eczanesi",
    "specialty": "Pharmacy",
    "address": ", Adana",
    "latitude": 37.0209685,
    "longitude": 35.319866,
    "country_code": "TR",
    "is_active": true,
    "review_count": 0,
    "rating_overall": 0
  },
  {
    "name": "Senem Eczanesi",
    "specialty": "Pharmacy",
    "address": ", Adana",
    "latitude": 37.0211046,
    "longitude": 35.3198099,
    "country_code": "TR",
    "is_active": true,
    "review_count": 0,
    "rating_overall": 0
  },
  {
    "name": "Çalışkan Eczanesi",
    "specialty": "Pharmacy",
    "address": "Adana, Adana",
    "latitude": 37.0168534,
    "longitude": 35.3221349,
    "country_code": "TR",
    "is_active": true,
    "review_count": 0,
    "rating_overall": 0
  },
  {
    "name": "Başkent Eczanesi",
    "specialty": "Pharmacy",
    "address": ", Adana",
    "latitude": 37.0167206,
    "longitude": 35.3216996,
    "country_code": "TR",
    "is_active": true,
    "review_count": 0,
    "rating_overall": 0
  },
  {
    "name": "Ülker Eczanesi",
    "specialty": "Pharmacy",
    "address": ", Adana",
    "latitude": 37.0168195,
    "longitude": 35.3216607,
    "country_code": "TR",
    "is_active": true,
    "review_count": 0,
    "rating_overall": 0
  },
  {
    "name": "Neslihan Eczanesi",
    "specialty": "Pharmacy",
    "address": "Adana, Adana",
    "latitude": 37.0172788,
    "longitude": 35.3215229,
    "country_code": "TR",
    "is_active": true,
    "review_count": 0,
    "rating_overall": 0
  },
  {
    "name": "Adıyaman Eczanesi",
    "specialty": "Pharmacy",
    "address": "Adana, Adana",
    "latitude": 37.0174568,
    "longitude": 35.3214096,
    "country_code": "TR",
    "is_active": true,
    "review_count": 0,
    "rating_overall": 0
  },
  {
    "name": "Farsak Eczanesi",
    "specialty": "Pharmacy",
    "address": "Ulus Mah. Hastane cd. , Adana",
    "latitude": 37.0267754,
    "longitude": 35.8197413,
    "country_code": "TR",
    "is_active": true,
    "review_count": 0,
    "rating_overall": 0
  },
  {
    "name": "Zeki Karsli",
    "specialty": "Dentist",
    "address": "Ziyapaşa Bulvarı , Adana",
    "latitude": 36.9940852,
    "longitude": 35.3219727,
    "country_code": "TR",
    "is_active": true,
    "review_count": 0,
    "rating_overall": 0
  },
  {
    "name": "Prof.Dr.Orhan Şen Muayenehanesi",
    "specialty": "Doctor's Office",
    "address": "68012 Sokak , Adana",
    "latitude": 37.021887,
    "longitude": 35.3199845,
    "country_code": "TR",
    "is_active": true,
    "review_count": 0,
    "rating_overall": 0
  },
  {
    "name": "Hacetepeliler Cerrahi Tıp Merkezi",
    "specialty": "Hospital",
    "address": ", Adana",
    "latitude": 36.9870027,
    "longitude": 35.3075898,
    "country_code": "TR",
    "is_active": true,
    "review_count": 0,
    "rating_overall": 0
  },
  {
    "name": "Özel Adana Hastanesi",
    "specialty": "Hospital",
    "address": ", Adana",
    "latitude": 36.9938983,
    "longitude": 35.3243209,
    "country_code": "TR",
    "is_active": true,
    "review_count": 0,
    "rating_overall": 0
  },
  {
    "name": "Belde Eczanesi",
    "specialty": "Pharmacy",
    "address": ", Adana",
    "latitude": 36.9939971,
    "longitude": 35.3253472,
    "country_code": "TR",
    "is_active": true,
    "review_count": 0,
    "rating_overall": 0
  },
  {
    "name": "Park Eczanesi",
    "specialty": "Pharmacy",
    "address": "Adana, Adana",
    "latitude": 37.0000875,
    "longitude": 35.3233861,
    "country_code": "TR",
    "is_active": true,
    "review_count": 0,
    "rating_overall": 0
  },
  {
    "name": "Toros Aile Saglığı Merkezi",
    "specialty": "Clinic",
    "address": "Adana, Adana",
    "latitude": 37.0388277,
    "longitude": 35.2950258,
    "country_code": "TR",
    "is_active": true,
    "review_count": 0,
    "rating_overall": 0
  },
  {
    "name": "Zehra Eczanesi",
    "specialty": "Pharmacy",
    "address": ", Adana",
    "latitude": 37.0182088,
    "longitude": 35.3173204,
    "country_code": "TR",
    "is_active": true,
    "review_count": 0,
    "rating_overall": 0
  },
  {
    "name": "Oğuz Eczanesi",
    "specialty": "Pharmacy",
    "address": ", Adana",
    "latitude": 36.9635782,
    "longitude": 35.3383201,
    "country_code": "TR",
    "is_active": true,
    "review_count": 0,
    "rating_overall": 0
  },
  {
    "name": "Yavuzlar Aile Sağlığı Merkezi",
    "specialty": "Clinic",
    "address": ", Adana",
    "latitude": 37.0001116,
    "longitude": 35.3422821,
    "country_code": "TR",
    "is_active": true,
    "review_count": 0,
    "rating_overall": 0
  },
  {
    "name": "Hande Eczanesi",
    "specialty": "Pharmacy",
    "address": ", Adana",
    "latitude": 36.9631594,
    "longitude": 35.3385475,
    "country_code": "TR",
    "is_active": true,
    "review_count": 0,
    "rating_overall": 0
  },
  {
    "name": "Yenibaraj Eczanesi",
    "specialty": "Pharmacy",
    "address": "Adana, Adana",
    "latitude": 37.0218959,
    "longitude": 35.3195686,
    "country_code": "TR",
    "is_active": true,
    "review_count": 0,
    "rating_overall": 0
  },
  {
    "name": "Haydaroğlu Aile Sağlığı Merkezi",
    "specialty": "Clinic",
    "address": ", Adana",
    "latitude": 36.9634763,
    "longitude": 35.3387218,
    "country_code": "TR",
    "is_active": true,
    "review_count": 0,
    "rating_overall": 0
  },
  {
    "name": "Dilay Eczanesi",
    "specialty": "Pharmacy",
    "address": ", Adana",
    "latitude": 36.9633919,
    "longitude": 35.3390696,
    "country_code": "TR",
    "is_active": true,
    "review_count": 0,
    "rating_overall": 0
  },
  {
    "name": "Eylül Eczanesi",
    "specialty": "Pharmacy",
    "address": ", Adana",
    "latitude": 36.9633025,
    "longitude": 35.3383192,
    "country_code": "TR",
    "is_active": true,
    "review_count": 0,
    "rating_overall": 0
  },
  {
    "name": "Altunay Eczanesi",
    "specialty": "Pharmacy",
    "address": ", Adana",
    "latitude": 36.9822535,
    "longitude": 35.3383173,
    "country_code": "TR",
    "is_active": true,
    "review_count": 0,
    "rating_overall": 0
  },
  {
    "name": "Büyük Nisan Eczanesi",
    "specialty": "Pharmacy",
    "address": "Adana, Adana",
    "latitude": 36.986358,
    "longitude": 35.338098,
    "country_code": "TR",
    "is_active": true,
    "review_count": 0,
    "rating_overall": 0
  },
  {
    "name": "Özel isa Alataş Tip merkezi",
    "specialty": "Doctor's Office",
    "address": ", Adana",
    "latitude": 37.0110114,
    "longitude": 35.3765343,
    "country_code": "TR",
    "is_active": true,
    "review_count": 0,
    "rating_overall": 0
  },
  {
    "name": "Oktay Eczanesi",
    "specialty": "Pharmacy",
    "address": ", Adana",
    "latitude": 37.0202589,
    "longitude": 35.3415753,
    "country_code": "TR",
    "is_active": true,
    "review_count": 0,
    "rating_overall": 0
  },
  {
    "name": "Güzelyurt Aile Sağlığı Merkezi",
    "specialty": "Clinic",
    "address": ", Adana",
    "latitude": 37.0280622,
    "longitude": 35.299447,
    "country_code": "TR",
    "is_active": true,
    "review_count": 0,
    "rating_overall": 0
  },
  {
    "name": "Kışla Köprülü Aile Sağlığı Merkezi",
    "specialty": "Clinic",
    "address": ", Adana",
    "latitude": 37.0202266,
    "longitude": 35.3416648,
    "country_code": "TR",
    "is_active": true,
    "review_count": 0,
    "rating_overall": 0
  },
  {
    "name": "Beyaz Eczanesi",
    "specialty": "Pharmacy",
    "address": "80034 Adana, Adana",
    "latitude": 37.0320603,
    "longitude": 35.321264,
    "country_code": "TR",
    "is_active": true,
    "review_count": 0,
    "rating_overall": 0
  },
  {
    "name": "Batıkent Hastanesi",
    "specialty": "Hospital",
    "address": ", Adana",
    "latitude": 37.027373,
    "longitude": 35.4016623,
    "country_code": "TR",
    "is_active": true,
    "review_count": 0,
    "rating_overall": 0
  },
  {
    "name": "Kozan Ağız Ve Diş Sağlığı Merkezi",
    "specialty": "Dentist",
    "address": ", Adana",
    "latitude": 37.4612559,
    "longitude": 35.8219384,
    "country_code": "TR",
    "is_active": true,
    "review_count": 0,
    "rating_overall": 0
  },
  {
    "name": "Tör Eczanesi",
    "specialty": "Pharmacy",
    "address": ", Adana",
    "latitude": 37.0426689,
    "longitude": 35.2596092,
    "country_code": "TR",
    "is_active": true,
    "review_count": 0,
    "rating_overall": 0
  },
  {
    "name": "Masal Eczanesi",
    "specialty": "Pharmacy",
    "address": ", Adana",
    "latitude": 37.0346621,
    "longitude": 35.2607049,
    "country_code": "TR",
    "is_active": true,
    "review_count": 0,
    "rating_overall": 0
  },
  {
    "name": "Aydemir Eczanesi",
    "specialty": "Pharmacy",
    "address": ", Adana",
    "latitude": 37.0505779,
    "longitude": 35.2613548,
    "country_code": "TR",
    "is_active": true,
    "review_count": 0,
    "rating_overall": 0
  },
  {
    "name": "Acar Plus Eczanesi",
    "specialty": "Pharmacy",
    "address": ", Adana",
    "latitude": 37.0294761,
    "longitude": 35.3059791,
    "country_code": "TR",
    "is_active": true,
    "review_count": 0,
    "rating_overall": 0
  },
  {
    "name": "Adana Halk Sağlığı Laboratuvarı",
    "specialty": "Clinic",
    "address": ", Adana",
    "latitude": 36.9986948,
    "longitude": 35.3283256,
    "country_code": "TR",
    "is_active": true,
    "review_count": 0,
    "rating_overall": 0
  },
  {
    "name": "Deva Eczanesi",
    "specialty": "Pharmacy",
    "address": "Adana, Adana",
    "latitude": 36.9848328,
    "longitude": 35.324955,
    "country_code": "TR",
    "is_active": true,
    "review_count": 0,
    "rating_overall": 0
  },
  {
    "name": "Tüzün Eczanesi",
    "specialty": "Pharmacy",
    "address": ", Adana",
    "latitude": 36.9671245,
    "longitude": 35.3176223,
    "country_code": "TR",
    "is_active": true,
    "review_count": 0,
    "rating_overall": 0
  },
  {
    "name": "Cihan Eczanesi",
    "specialty": "Pharmacy",
    "address": "Adana, Adana",
    "latitude": 36.9771534,
    "longitude": 35.3277122,
    "country_code": "TR",
    "is_active": true,
    "review_count": 0,
    "rating_overall": 0
  },
  {
    "name": "Seyhan Eczanesi",
    "specialty": "Pharmacy",
    "address": ", Adana",
    "latitude": 36.9807667,
    "longitude": 35.3321492,
    "country_code": "TR",
    "is_active": true,
    "review_count": 0,
    "rating_overall": 0
  },
  {
    "name": "Havuzlu Bahçe Eczanesi",
    "specialty": "Pharmacy",
    "address": ", Adana",
    "latitude": 36.9715734,
    "longitude": 35.3193259,
    "country_code": "TR",
    "is_active": true,
    "review_count": 0,
    "rating_overall": 0
  },
  {
    "name": "Türkmen Eczanesi",
    "specialty": "Pharmacy",
    "address": "Adana, Adana",
    "latitude": 36.972406,
    "longitude": 35.3282013,
    "country_code": "TR",
    "is_active": true,
    "review_count": 0,
    "rating_overall": 0
  },
  {
    "name": "Aksoy Eczanesi",
    "specialty": "Pharmacy",
    "address": ", Adana",
    "latitude": 36.9725464,
    "longitude": 35.3280909,
    "country_code": "TR",
    "is_active": true,
    "review_count": 0,
    "rating_overall": 0
  },
  {
    "name": "Şahinkanat Eczanesi",
    "specialty": "Pharmacy",
    "address": ", Adana",
    "latitude": 36.9783664,
    "longitude": 35.3238098,
    "country_code": "TR",
    "is_active": true,
    "review_count": 0,
    "rating_overall": 0
  },
  {
    "name": "Barbaros Eczanesi",
    "specialty": "Pharmacy",
    "address": ", Adana",
    "latitude": 36.9655104,
    "longitude": 35.3246845,
    "country_code": "TR",
    "is_active": true,
    "review_count": 0,
    "rating_overall": 0
  },
  {
    "name": "Evgin Eczanesi",
    "specialty": "Pharmacy",
    "address": ", Adana",
    "latitude": 36.9722841,
    "longitude": 35.327937,
    "country_code": "TR",
    "is_active": true,
    "review_count": 0,
    "rating_overall": 0
  },
  {
    "name": "Yenibey Aile Sağlığı Merkezi",
    "specialty": "Clinic",
    "address": ", Adana",
    "latitude": 36.9752698,
    "longitude": 35.3285855,
    "country_code": "TR",
    "is_active": true,
    "review_count": 0,
    "rating_overall": 0
  },
  {
    "name": "Özsoy Eczanesi",
    "specialty": "Pharmacy",
    "address": ", Adana",
    "latitude": 36.9809658,
    "longitude": 35.3321015,
    "country_code": "TR",
    "is_active": true,
    "review_count": 0,
    "rating_overall": 0
  },
  {
    "name": "Bulut Eczanesi",
    "specialty": "Pharmacy",
    "address": ", Adana",
    "latitude": 36.9746951,
    "longitude": 35.3290201,
    "country_code": "TR",
    "is_active": true,
    "review_count": 0,
    "rating_overall": 0
  },
  {
    "name": "Şahin Eczanesi",
    "specialty": "Pharmacy",
    "address": ", Adana",
    "latitude": 36.9824116,
    "longitude": 35.3250425,
    "country_code": "TR",
    "is_active": true,
    "review_count": 0,
    "rating_overall": 0
  },
  {
    "name": "Diyar Eczanesi",
    "specialty": "Pharmacy",
    "address": ", Adana",
    "latitude": 36.9655948,
    "longitude": 35.3248741,
    "country_code": "TR",
    "is_active": true,
    "review_count": 0,
    "rating_overall": 0
  },
  {
    "name": "Mengü Eczanesi",
    "specialty": "Pharmacy",
    "address": "Adana, Adana",
    "latitude": 36.9794249,
    "longitude": 35.3239277,
    "country_code": "TR",
    "is_active": true,
    "review_count": 0,
    "rating_overall": 0
  },
  {
    "name": "Volkan Eczanesi",
    "specialty": "Pharmacy",
    "address": "Adana, Adana",
    "latitude": 36.995342,
    "longitude": 35.3542437,
    "country_code": "TR",
    "is_active": true,
    "review_count": 0,
    "rating_overall": 0
  },
  {
    "name": "Sarıçam Eczanesi",
    "specialty": "Pharmacy",
    "address": ", Adana",
    "latitude": 36.994995,
    "longitude": 35.3544608,
    "country_code": "TR",
    "is_active": true,
    "review_count": 0,
    "rating_overall": 0
  },
  {
    "name": "Akıncılar Aile Sağlığı Merkezi",
    "specialty": "Clinic",
    "address": "Adana, Adana",
    "latitude": 36.9951803,
    "longitude": 35.3541798,
    "country_code": "TR",
    "is_active": true,
    "review_count": 0,
    "rating_overall": 0
  },
  {
    "name": "Karsiyaka Filiz Eczanesi",
    "specialty": "Pharmacy",
    "address": ", Adana",
    "latitude": 36.9998317,
    "longitude": 35.3634406,
    "country_code": "TR",
    "is_active": true,
    "review_count": 0,
    "rating_overall": 0
  },
  {
    "name": "Akıncılar Eczanesi",
    "specialty": "Pharmacy",
    "address": "Adana, Adana",
    "latitude": 36.9952441,
    "longitude": 35.3543915,
    "country_code": "TR",
    "is_active": true,
    "review_count": 0,
    "rating_overall": 0
  },
  {
    "name": "Demet Eczanesi",
    "specialty": "Pharmacy",
    "address": ", Adana",
    "latitude": 36.9979532,
    "longitude": 35.3592223,
    "country_code": "TR",
    "is_active": true,
    "review_count": 0,
    "rating_overall": 0
  },
  {
    "name": "Kozan Eczanesi",
    "specialty": "Pharmacy",
    "address": ", Adana",
    "latitude": 37.0274484,
    "longitude": 35.4018296,
    "country_code": "TR",
    "is_active": true,
    "review_count": 0,
    "rating_overall": 0
  },
  {
    "name": "Gündoğdu Eczanesi",
    "specialty": "Pharmacy",
    "address": ", Adana",
    "latitude": 37.0297813,
    "longitude": 35.4053383,
    "country_code": "TR",
    "is_active": true,
    "review_count": 0,
    "rating_overall": 0
  },
  {
    "name": "Zühal Cengiz Eczanesi",
    "specialty": "Pharmacy",
    "address": ", Adana",
    "latitude": 37.0326194,
    "longitude": 35.4098122,
    "country_code": "TR",
    "is_active": true,
    "review_count": 0,
    "rating_overall": 0
  },
  {
    "name": "Kelebek Eczanesi",
    "specialty": "Pharmacy",
    "address": ", Adana",
    "latitude": 37.0363076,
    "longitude": 35.4201542,
    "country_code": "TR",
    "is_active": true,
    "review_count": 0,
    "rating_overall": 0
  },
  {
    "name": "Saimbeyli Eczanesi",
    "specialty": "Pharmacy",
    "address": ", Adana",
    "latitude": 37.0358823,
    "longitude": 35.4203655,
    "country_code": "TR",
    "is_active": true,
    "review_count": 0,
    "rating_overall": 0
  },
  {
    "name": "Kozan Yeni Sağlık Eczanesi",
    "specialty": "Pharmacy",
    "address": ", Adana",
    "latitude": 37.0331494,
    "longitude": 35.4221497,
    "country_code": "TR",
    "is_active": true,
    "review_count": 0,
    "rating_overall": 0
  },
  {
    "name": "Efe Eczanesi",
    "specialty": "Pharmacy",
    "address": "Adana, Adana",
    "latitude": 37.0427823,
    "longitude": 35.430182,
    "country_code": "TR",
    "is_active": true,
    "review_count": 0,
    "rating_overall": 0
  },
  {
    "name": "Ulaş Eczanesi",
    "specialty": "Pharmacy",
    "address": ", Adana",
    "latitude": 37.0295772,
    "longitude": 35.8123349,
    "country_code": "TR",
    "is_active": true,
    "review_count": 0,
    "rating_overall": 0
  },
  {
    "name": "Çolka Eczanesi",
    "specialty": "Pharmacy",
    "address": ", Adana",
    "latitude": 37.0134338,
    "longitude": 35.81409,
    "country_code": "TR",
    "is_active": true,
    "review_count": 0,
    "rating_overall": 0
  },
  {
    "name": "Muradiye Aile Sağlığı Merkezi",
    "specialty": "Clinic",
    "address": ", Adana",
    "latitude": 37.0184363,
    "longitude": 35.8022679,
    "country_code": "TR",
    "is_active": true,
    "review_count": 0,
    "rating_overall": 0
  },
  {
    "name": "Ceyhan Çocuk Hastanesi",
    "specialty": "Hospital",
    "address": ", Adana",
    "latitude": 37.0388733,
    "longitude": 35.8154688,
    "country_code": "TR",
    "is_active": true,
    "review_count": 0,
    "rating_overall": 0
  },
  {
    "name": "Burcin Eczanesi",
    "specialty": "Pharmacy",
    "address": ", Adana",
    "latitude": 37.0133226,
    "longitude": 35.814282,
    "country_code": "TR",
    "is_active": true,
    "review_count": 0,
    "rating_overall": 0
  },
  {
    "name": "Gözde Eczanesi",
    "specialty": "Pharmacy",
    "address": ", Adana",
    "latitude": 37.0350688,
    "longitude": 35.8218987,
    "country_code": "TR",
    "is_active": true,
    "review_count": 0,
    "rating_overall": 0
  },
  {
    "name": "Erol Eczanesi",
    "specialty": "Pharmacy",
    "address": ", Adana",
    "latitude": 37.0259868,
    "longitude": 35.8188542,
    "country_code": "TR",
    "is_active": true,
    "review_count": 0,
    "rating_overall": 0
  },
  {
    "name": "Çelemli Eczanesi",
    "specialty": "Pharmacy",
    "address": ", Adana",
    "latitude": 37.0267786,
    "longitude": 35.8191237,
    "country_code": "TR",
    "is_active": true,
    "review_count": 0,
    "rating_overall": 0
  },
  {
    "name": "Hürriyet Eczanesi",
    "specialty": "Pharmacy",
    "address": ", Adana",
    "latitude": 37.0350004,
    "longitude": 35.8211421,
    "country_code": "TR",
    "is_active": true,
    "review_count": 0,
    "rating_overall": 0
  },
  {
    "name": "Deva Eczanesi",
    "specialty": "Pharmacy",
    "address": ", Adana",
    "latitude": 37.0325551,
    "longitude": 35.8168395,
    "country_code": "TR",
    "is_active": true,
    "review_count": 0,
    "rating_overall": 0
  },
  {
    "name": "Ceyhan Eczanesi",
    "specialty": "Pharmacy",
    "address": ", Adana",
    "latitude": 37.0267476,
    "longitude": 35.8193741,
    "country_code": "TR",
    "is_active": true,
    "review_count": 0,
    "rating_overall": 0
  },
  {
    "name": "Ozturkler Eczanesi",
    "specialty": "Pharmacy",
    "address": "Adana, Adana",
    "latitude": 37.035059,
    "longitude": 35.8214269,
    "country_code": "TR",
    "is_active": true,
    "review_count": 0,
    "rating_overall": 0
  },
  {
    "name": "Sönmez Eczanesi",
    "specialty": "Pharmacy",
    "address": ", Adana",
    "latitude": 37.0181672,
    "longitude": 35.8024929,
    "country_code": "TR",
    "is_active": true,
    "review_count": 0,
    "rating_overall": 0
  },
  {
    "name": "Denizhan Eczanesi",
    "specialty": "Pharmacy",
    "address": ", Adana",
    "latitude": 37.0388794,
    "longitude": 35.8148629,
    "country_code": "TR",
    "is_active": true,
    "review_count": 0,
    "rating_overall": 0
  },
  {
    "name": "Hürriyet Aile Sağlığı Merkezi",
    "specialty": "Clinic",
    "address": ", Adana",
    "latitude": 37.0353355,
    "longitude": 35.8216171,
    "country_code": "TR",
    "is_active": true,
    "review_count": 0,
    "rating_overall": 0
  },
  {
    "name": "Tekeli Eczanesi",
    "specialty": "Pharmacy",
    "address": ", Adana",
    "latitude": 37.0179268,
    "longitude": 35.8033259,
    "country_code": "TR",
    "is_active": true,
    "review_count": 0,
    "rating_overall": 0
  },
  {
    "name": "Altıocak Aile Sağlığı Merkezi",
    "specialty": "Clinic",
    "address": ", Adana",
    "latitude": 37.0413742,
    "longitude": 35.8170967,
    "country_code": "TR",
    "is_active": true,
    "review_count": 0,
    "rating_overall": 0
  },
  {
    "name": "Nisa Eczanesi",
    "specialty": "Pharmacy",
    "address": ", Adana",
    "latitude": 37.0131649,
    "longitude": 35.8141063,
    "country_code": "TR",
    "is_active": true,
    "review_count": 0,
    "rating_overall": 0
  },
  {
    "name": "Deniz Eczanesi",
    "specialty": "Pharmacy",
    "address": ", Adana",
    "latitude": 37.0312881,
    "longitude": 35.8129845,
    "country_code": "TR",
    "is_active": true,
    "review_count": 0,
    "rating_overall": 0
  },
  {
    "name": "Güneş Eczanesi",
    "specialty": "Pharmacy",
    "address": ", Adana",
    "latitude": 36.7757912,
    "longitude": 35.7933311,
    "country_code": "TR",
    "is_active": true,
    "review_count": 0,
    "rating_overall": 0
  },
  {
    "name": "Yumurtalık \n\nAile Sağlığı Merkezi",
    "specialty": "Clinic",
    "address": ", Adana",
    "latitude": 36.7758697,
    "longitude": 35.7942657,
    "country_code": "TR",
    "is_active": true,
    "review_count": 0,
    "rating_overall": 0
  },
  {
    "name": "Çelebi Eczanesi",
    "specialty": "Pharmacy",
    "address": ", Adana",
    "latitude": 37.0188565,
    "longitude": 35.4017618,
    "country_code": "TR",
    "is_active": true,
    "review_count": 0,
    "rating_overall": 0
  },
  {
    "name": "Özel Medline Hastanesi",
    "specialty": "Hospital",
    "address": "Turgut Özal Bulvarı Çukurova, Adana",
    "latitude": 37.0532646,
    "longitude": 35.2544365,
    "country_code": "TR",
    "is_active": true,
    "review_count": 0,
    "rating_overall": 0
  },
  {
    "name": "Şahin Eczanesi",
    "specialty": "Pharmacy",
    "address": "103 sokak , Adana",
    "latitude": 37.328686,
    "longitude": 34.7934795,
    "country_code": "TR",
    "is_active": true,
    "review_count": 0,
    "rating_overall": 0
  },
  {
    "name": "Nesli Eczanesi",
    "specialty": "Pharmacy",
    "address": "Mehmet Akif Ersoy caddesi Adana, Adana",
    "latitude": 36.9990158,
    "longitude": 35.2882042,
    "country_code": "TR",
    "is_active": true,
    "review_count": 0,
    "rating_overall": 0
  },
  {
    "name": "Cemre Eczanesi",
    "specialty": "Pharmacy",
    "address": "83025. Sk. çukurova, Adana",
    "latitude": 37.0599347,
    "longitude": 35.280666,
    "country_code": "TR",
    "is_active": true,
    "review_count": 0,
    "rating_overall": 0
  },
  {
    "name": "Özel Kocacık Ağız ve Diş Sağlığı Polikliniği",
    "specialty": "Dentist",
    "address": "81106 çukurova, Adana",
    "latitude": 37.046415,
    "longitude": 35.3088013,
    "country_code": "TR",
    "is_active": true,
    "review_count": 0,
    "rating_overall": 0
  },
  {
    "name": "Özkan Eczanesi",
    "specialty": "Pharmacy",
    "address": ", Adana",
    "latitude": 37.2545349,
    "longitude": 35.6622595,
    "country_code": "TR",
    "is_active": true,
    "review_count": 0,
    "rating_overall": 0
  },
  {
    "name": "Tümer Eczanesi",
    "specialty": "Pharmacy",
    "address": ", Adana",
    "latitude": 37.25745,
    "longitude": 35.6612012,
    "country_code": "TR",
    "is_active": true,
    "review_count": 0,
    "rating_overall": 0
  },
  {
    "name": "Toklu Eczanesi",
    "specialty": "Pharmacy",
    "address": ", Adana",
    "latitude": 37.267325,
    "longitude": 35.6611833,
    "country_code": "TR",
    "is_active": true,
    "review_count": 0,
    "rating_overall": 0
  },
  {
    "name": "Avan Eczanesi",
    "specialty": "Pharmacy",
    "address": ", Adana",
    "latitude": 37.2984368,
    "longitude": 35.8551382,
    "country_code": "TR",
    "is_active": true,
    "review_count": 0,
    "rating_overall": 0
  },
  {
    "name": "Erdoğan Eczanesi",
    "specialty": "Pharmacy",
    "address": ", Adana",
    "latitude": 37.2518393,
    "longitude": 35.6480407,
    "country_code": "TR",
    "is_active": true,
    "review_count": 0,
    "rating_overall": 0
  },
  {
    "name": "Şafak Eczanesi",
    "specialty": "Pharmacy",
    "address": ", Adana",
    "latitude": 37.2543781,
    "longitude": 35.6623124,
    "country_code": "TR",
    "is_active": true,
    "review_count": 0,
    "rating_overall": 0
  },
  {
    "name": "Ümit Eczanesi",
    "specialty": "Pharmacy",
    "address": ", Adana",
    "latitude": 37.2575129,
    "longitude": 35.6614563,
    "country_code": "TR",
    "is_active": true,
    "review_count": 0,
    "rating_overall": 0
  },
  {
    "name": "Örtlek Eczanesi",
    "specialty": "Pharmacy",
    "address": ", Adana",
    "latitude": 37.3387946,
    "longitude": 35.9096427,
    "country_code": "TR",
    "is_active": true,
    "review_count": 0,
    "rating_overall": 0
  },
  {
    "name": "Elif Özmü Eczanesi",
    "specialty": "Pharmacy",
    "address": ", Adana",
    "latitude": 37.2566426,
    "longitude": 35.66124,
    "country_code": "TR",
    "is_active": true,
    "review_count": 0,
    "rating_overall": 0
  },
  {
    "name": "İmamoğlu Eczanesi",
    "specialty": "Pharmacy",
    "address": ", Adana",
    "latitude": 37.2542605,
    "longitude": 35.6623304,
    "country_code": "TR",
    "is_active": true,
    "review_count": 0,
    "rating_overall": 0
  },
  {
    "name": "Serap Eczanesi",
    "specialty": "Pharmacy",
    "address": ", Adana",
    "latitude": 37.2567865,
    "longitude": 35.6614713,
    "country_code": "TR",
    "is_active": true,
    "review_count": 0,
    "rating_overall": 0
  },
  {
    "name": "Bucak Eczanesi",
    "specialty": "Pharmacy",
    "address": ", Adana",
    "latitude": 37.4575463,
    "longitude": 35.909475,
    "country_code": "TR",
    "is_active": true,
    "review_count": 0,
    "rating_overall": 0
  },
  {
    "name": "Ömürün Eczanesi",
    "specialty": "Pharmacy",
    "address": ", Adana",
    "latitude": 37.1819008,
    "longitude": 35.6859536,
    "country_code": "TR",
    "is_active": true,
    "review_count": 0,
    "rating_overall": 0
  },
  {
    "name": "Oktay Ekşi Eczanesi",
    "specialty": "Pharmacy",
    "address": ", Adana",
    "latitude": 37.2572911,
    "longitude": 35.6611865,
    "country_code": "TR",
    "is_active": true,
    "review_count": 0,
    "rating_overall": 0
  },
  {
    "name": "Neslihan Eczanesi",
    "specialty": "Pharmacy",
    "address": "Adana, Adana",
    "latitude": 37.2580002,
    "longitude": 35.661093,
    "country_code": "TR",
    "is_active": true,
    "review_count": 0,
    "rating_overall": 0
  },
  {
    "name": "Demiray Eczanesi",
    "specialty": "Pharmacy",
    "address": ", Adana",
    "latitude": 36.5703602,
    "longitude": 35.3831422,
    "country_code": "TR",
    "is_active": true,
    "review_count": 0,
    "rating_overall": 0
  },
  {
    "name": "Abay Eczanesi",
    "specialty": "Pharmacy",
    "address": ", Adana",
    "latitude": 36.8026827,
    "longitude": 35.3331329,
    "country_code": "TR",
    "is_active": true,
    "review_count": 0,
    "rating_overall": 0
  },
  {
    "name": "Ayten Eczanesi",
    "specialty": "Pharmacy",
    "address": ", Adana",
    "latitude": 36.56582,
    "longitude": 35.3838557,
    "country_code": "TR",
    "is_active": true,
    "review_count": 0,
    "rating_overall": 0
  },
  {
    "name": "Filizim Eczanesi",
    "specialty": "Pharmacy",
    "address": ", Adana",
    "latitude": 36.5727705,
    "longitude": 35.3832519,
    "country_code": "TR",
    "is_active": true,
    "review_count": 0,
    "rating_overall": 0
  },
  {
    "name": "Yeni Güney Eczanesi",
    "specialty": "Pharmacy",
    "address": ", Adana",
    "latitude": 36.8427696,
    "longitude": 35.341308,
    "country_code": "TR",
    "is_active": true,
    "review_count": 0,
    "rating_overall": 0
  },
  {
    "name": "Yakamoz Eczanesi",
    "specialty": "Pharmacy",
    "address": ", Adana",
    "latitude": 36.5653601,
    "longitude": 35.3839784,
    "country_code": "TR",
    "is_active": true,
    "review_count": 0,
    "rating_overall": 0
  },
  {
    "name": "Evren Eczanesi",
    "specialty": "Pharmacy",
    "address": ", Adana",
    "latitude": 36.8017314,
    "longitude": 35.3329889,
    "country_code": "TR",
    "is_active": true,
    "review_count": 0,
    "rating_overall": 0
  },
  {
    "name": "İskele Eczanesi",
    "specialty": "Pharmacy",
    "address": ", Adana",
    "latitude": 36.565583,
    "longitude": 35.3843988,
    "country_code": "TR",
    "is_active": true,
    "review_count": 0,
    "rating_overall": 0
  },
  {
    "name": "Gülfidan Eczanesi",
    "specialty": "Pharmacy",
    "address": ", Adana",
    "latitude": 36.8427384,
    "longitude": 35.3415473,
    "country_code": "TR",
    "is_active": true,
    "review_count": 0,
    "rating_overall": 0
  },
  {
    "name": "Özge Eczanesi",
    "specialty": "Pharmacy",
    "address": ", Adana",
    "latitude": 37.0360844,
    "longitude": 35.7669592,
    "country_code": "TR",
    "is_active": true,
    "review_count": 0,
    "rating_overall": 0
  },
  {
    "name": "Defne Eczanesi",
    "specialty": "Pharmacy",
    "address": ", Adana",
    "latitude": 37.0481057,
    "longitude": 35.8116392,
    "country_code": "TR",
    "is_active": true,
    "review_count": 0,
    "rating_overall": 0
  },
  {
    "name": "Şifa Eczanesi",
    "specialty": "Pharmacy",
    "address": ", Adana",
    "latitude": 37.0440466,
    "longitude": 35.8141756,
    "country_code": "TR",
    "is_active": true,
    "review_count": 0,
    "rating_overall": 0
  },
  {
    "name": "İstanbul Eczanesi",
    "specialty": "Pharmacy",
    "address": ", Adana",
    "latitude": 37.0267691,
    "longitude": 35.8186232,
    "country_code": "TR",
    "is_active": true,
    "review_count": 0,
    "rating_overall": 0
  },
  {
    "name": "Ömür Eczanesi",
    "specialty": "Pharmacy",
    "address": ", Adana",
    "latitude": 37.0118388,
    "longitude": 35.8288829,
    "country_code": "TR",
    "is_active": true,
    "review_count": 0,
    "rating_overall": 0
  },
  {
    "name": "Musa Gülşen Eczanesi",
    "specialty": "Pharmacy",
    "address": ", Adana",
    "latitude": 37.0356663,
    "longitude": 35.8296896,
    "country_code": "TR",
    "is_active": true,
    "review_count": 0,
    "rating_overall": 0
  },
  {
    "name": "Hayat Eczanesi",
    "specialty": "Pharmacy",
    "address": ", Adana",
    "latitude": 37.0425279,
    "longitude": 35.8183022,
    "country_code": "TR",
    "is_active": true,
    "review_count": 0,
    "rating_overall": 0
  },
  {
    "name": "Deva Eczanesi",
    "specialty": "Pharmacy",
    "address": ", Adana",
    "latitude": 37.035143,
    "longitude": 35.820826,
    "country_code": "TR",
    "is_active": true,
    "review_count": 0,
    "rating_overall": 0
  },
  {
    "name": "Aslan Eczanesi",
    "specialty": "Pharmacy",
    "address": ", Adana",
    "latitude": 37.0160744,
    "longitude": 35.8249335,
    "country_code": "TR",
    "is_active": true,
    "review_count": 0,
    "rating_overall": 0
  },
  {
    "name": "Çamlıyol Eczanesi",
    "specialty": "Pharmacy",
    "address": ", Adana",
    "latitude": 37.0195503,
    "longitude": 35.8241191,
    "country_code": "TR",
    "is_active": true,
    "review_count": 0,
    "rating_overall": 0
  },
  {
    "name": "Şensan Eczanesi",
    "specialty": "Pharmacy",
    "address": "Adana, Adana",
    "latitude": 37.01872,
    "longitude": 35.8242844,
    "country_code": "TR",
    "is_active": true,
    "review_count": 0,
    "rating_overall": 0
  },
  {
    "name": "Sağlık Eczanesi",
    "specialty": "Pharmacy",
    "address": ", Adana",
    "latitude": 37.0186163,
    "longitude": 35.8239922,
    "country_code": "TR",
    "is_active": true,
    "review_count": 0,
    "rating_overall": 0
  },
  {
    "name": "Yağmur Eczanesi",
    "specialty": "Pharmacy",
    "address": ", Adana",
    "latitude": 37.0126851,
    "longitude": 35.8143551,
    "country_code": "TR",
    "is_active": true,
    "review_count": 0,
    "rating_overall": 0
  },
  {
    "name": "Pınar Eczanesi",
    "specialty": "Pharmacy",
    "address": ", Adana",
    "latitude": 37.0254251,
    "longitude": 35.8349579,
    "country_code": "TR",
    "is_active": true,
    "review_count": 0,
    "rating_overall": 0
  },
  {
    "name": "Selvi Eczanesi",
    "specialty": "Pharmacy",
    "address": ", Adana",
    "latitude": 37.0255083,
    "longitude": 35.8347112,
    "country_code": "TR",
    "is_active": true,
    "review_count": 0,
    "rating_overall": 0
  },
  {
    "name": "Murat Eczanesi",
    "specialty": "Pharmacy",
    "address": ", Adana",
    "latitude": 37.0422667,
    "longitude": 35.8176865,
    "country_code": "TR",
    "is_active": true,
    "review_count": 0,
    "rating_overall": 0
  },
  {
    "name": "Yeni Tekeli Eczanesi",
    "specialty": "Pharmacy",
    "address": ", Adana",
    "latitude": 37.0426345,
    "longitude": 35.8182807,
    "country_code": "TR",
    "is_active": true,
    "review_count": 0,
    "rating_overall": 0
  },
  {
    "name": "Merkez",
    "specialty": "Pharmacy",
    "address": ", Adana",
    "latitude": 37.0247608,
    "longitude": 35.8113385,
    "country_code": "TR",
    "is_active": true,
    "review_count": 0,
    "rating_overall": 0
  },
  {
    "name": "Darüşşifa Eczanesi",
    "specialty": "Pharmacy",
    "address": ", Adana",
    "latitude": 37.0267616,
    "longitude": 35.8188061,
    "country_code": "TR",
    "is_active": true,
    "review_count": 0,
    "rating_overall": 0
  },
  {
    "name": "Altınoluk Eczanesi",
    "specialty": "Pharmacy",
    "address": ", Adana",
    "latitude": 37.0267465,
    "longitude": 35.8192659,
    "country_code": "TR",
    "is_active": true,
    "review_count": 0,
    "rating_overall": 0
  },
  {
    "name": "Dorak Eczanesi",
    "specialty": "Pharmacy",
    "address": ", Adana",
    "latitude": 37.0267737,
    "longitude": 35.8198423,
    "country_code": "TR",
    "is_active": true,
    "review_count": 0,
    "rating_overall": 0
  },
  {
    "name": "Tuğçe Eczanesi",
    "specialty": "Pharmacy",
    "address": ", Adana",
    "latitude": 37.0249348,
    "longitude": 35.8199904,
    "country_code": "TR",
    "is_active": true,
    "review_count": 0,
    "rating_overall": 0
  },
  {
    "name": "Bozkurt Eczanesi",
    "specialty": "Pharmacy",
    "address": "Adana, Adana",
    "latitude": 37.0198013,
    "longitude": 35.8213241,
    "country_code": "TR",
    "is_active": true,
    "review_count": 0,
    "rating_overall": 0
  },
  {
    "name": "Baran Eczanesi",
    "specialty": "Pharmacy",
    "address": ", Adana",
    "latitude": 37.0476692,
    "longitude": 35.8106768,
    "country_code": "TR",
    "is_active": true,
    "review_count": 0,
    "rating_overall": 0
  },
  {
    "name": "Egemen Eczanesi",
    "specialty": "Pharmacy",
    "address": ", Adana",
    "latitude": 37.0229798,
    "longitude": 35.8194522,
    "country_code": "TR",
    "is_active": true,
    "review_count": 0,
    "rating_overall": 0
  },
  {
    "name": "Ece Eczanesi",
    "specialty": "Pharmacy",
    "address": ", Adana",
    "latitude": 37.0187935,
    "longitude": 35.8245206,
    "country_code": "TR",
    "is_active": true,
    "review_count": 0,
    "rating_overall": 0
  },
  {
    "name": "Türkmen Eczanesi",
    "specialty": "Pharmacy",
    "address": ", Adana",
    "latitude": 37.0130154,
    "longitude": 35.8141198,
    "country_code": "TR",
    "is_active": true,
    "review_count": 0,
    "rating_overall": 0
  },
  {
    "name": "Güven Eczanesi",
    "specialty": "Pharmacy",
    "address": ", Adana",
    "latitude": 37.1102727,
    "longitude": 35.11217,
    "country_code": "TR",
    "is_active": true,
    "review_count": 0,
    "rating_overall": 0
  },
  {
    "name": "Aylin Eczanesi",
    "specialty": "Pharmacy",
    "address": ", Adana",
    "latitude": 36.9788898,
    "longitude": 35.223029,
    "country_code": "TR",
    "is_active": true,
    "review_count": 0,
    "rating_overall": 0
  },
  {
    "name": "Harman Eczanesi",
    "specialty": "Pharmacy",
    "address": ", Adana",
    "latitude": 37.000381,
    "longitude": 35.2383143,
    "country_code": "TR",
    "is_active": true,
    "review_count": 0,
    "rating_overall": 0
  },
  {
    "name": "Bayram Eczanesi",
    "specialty": "Pharmacy",
    "address": ", Adana",
    "latitude": 36.9861576,
    "longitude": 35.2544519,
    "country_code": "TR",
    "is_active": true,
    "review_count": 0,
    "rating_overall": 0
  },
  {
    "name": "Gülbahar Eczanesi",
    "specialty": "Pharmacy",
    "address": ", Adana",
    "latitude": 36.9873288,
    "longitude": 35.2724344,
    "country_code": "TR",
    "is_active": true,
    "review_count": 0,
    "rating_overall": 0
  },
  {
    "name": "Şakirpaşa Eczanesi",
    "specialty": "Pharmacy",
    "address": ", Adana",
    "latitude": 36.9873105,
    "longitude": 35.2726849,
    "country_code": "TR",
    "is_active": true,
    "review_count": 0,
    "rating_overall": 0
  },
  {
    "name": "Sunam Eczanesi",
    "specialty": "Pharmacy",
    "address": ", Adana",
    "latitude": 36.9879232,
    "longitude": 35.2730594,
    "country_code": "TR",
    "is_active": true,
    "review_count": 0,
    "rating_overall": 0
  },
  {
    "name": "Erkan Eczanesi",
    "specialty": "Pharmacy",
    "address": ", Adana",
    "latitude": 36.9876196,
    "longitude": 35.2738385,
    "country_code": "TR",
    "is_active": true,
    "review_count": 0,
    "rating_overall": 0
  },
  {
    "name": "Sarıhamzalı Eczanesi",
    "specialty": "Pharmacy",
    "address": ", Adana",
    "latitude": 36.978885,
    "longitude": 35.2224309,
    "country_code": "TR",
    "is_active": true,
    "review_count": 0,
    "rating_overall": 0
  },
  {
    "name": "Demirci Eczanesi",
    "specialty": "Pharmacy",
    "address": ", Adana",
    "latitude": 37.0317204,
    "longitude": 35.2092804,
    "country_code": "TR",
    "is_active": true,
    "review_count": 0,
    "rating_overall": 0
  },
  {
    "name": "Akpınar Eczanesi",
    "specialty": "Pharmacy",
    "address": ", Adana",
    "latitude": 36.9787288,
    "longitude": 35.2226963,
    "country_code": "TR",
    "is_active": true,
    "review_count": 0,
    "rating_overall": 0
  },
  {
    "name": "Dünya Eczanesi",
    "specialty": "Pharmacy",
    "address": ", Adana",
    "latitude": 37.0013561,
    "longitude": 35.2163746,
    "country_code": "TR",
    "is_active": true,
    "review_count": 0,
    "rating_overall": 0
  },
  {
    "name": "Yeşiloba Eczanesi",
    "specialty": "Pharmacy",
    "address": ", Adana",
    "latitude": 36.9963322,
    "longitude": 35.2403146,
    "country_code": "TR",
    "is_active": true,
    "review_count": 0,
    "rating_overall": 0
  },
  {
    "name": "Yaycıoğlu Eczanesi",
    "specialty": "Pharmacy",
    "address": ", Adana",
    "latitude": 36.9812151,
    "longitude": 35.2730023,
    "country_code": "TR",
    "is_active": true,
    "review_count": 0,
    "rating_overall": 0
  },
  {
    "name": "Salbaş Eczanesi",
    "specialty": "Pharmacy",
    "address": ", Adana",
    "latitude": 37.1098044,
    "longitude": 35.1118353,
    "country_code": "TR",
    "is_active": true,
    "review_count": 0,
    "rating_overall": 0
  },
  {
    "name": "Yüksel Eczanesi",
    "specialty": "Pharmacy",
    "address": ", Adana",
    "latitude": 37.0013379,
    "longitude": 35.1947778,
    "country_code": "TR",
    "is_active": true,
    "review_count": 0,
    "rating_overall": 0
  },
  {
    "name": "Nergiz Eczanesi",
    "specialty": "Pharmacy",
    "address": ", Adana",
    "latitude": 36.9786952,
    "longitude": 35.2229133,
    "country_code": "TR",
    "is_active": true,
    "review_count": 0,
    "rating_overall": 0
  },
  {
    "name": "Tamgüç Eczanesi",
    "specialty": "Pharmacy",
    "address": ", Adana",
    "latitude": 37.0008967,
    "longitude": 35.2168328,
    "country_code": "TR",
    "is_active": true,
    "review_count": 0,
    "rating_overall": 0
  },
  {
    "name": "Avşar Eczanesi",
    "specialty": "Pharmacy",
    "address": ", Adana",
    "latitude": 36.9999814,
    "longitude": 35.2386666,
    "country_code": "TR",
    "is_active": true,
    "review_count": 0,
    "rating_overall": 0
  },
  {
    "name": "Yücel Eczanesi",
    "specialty": "Pharmacy",
    "address": ", Adana",
    "latitude": 37.0012396,
    "longitude": 35.2610539,
    "country_code": "TR",
    "is_active": true,
    "review_count": 0,
    "rating_overall": 0
  },
  {
    "name": "Özde Eczanesi",
    "specialty": "Pharmacy",
    "address": ", Adana",
    "latitude": 36.9817554,
    "longitude": 35.2730501,
    "country_code": "TR",
    "is_active": true,
    "review_count": 0,
    "rating_overall": 0
  },
  {
    "name": "Aksa Eczanesi",
    "specialty": "Pharmacy",
    "address": "Adana, Adana",
    "latitude": 36.9874621,
    "longitude": 35.2707026,
    "country_code": "TR",
    "is_active": true,
    "review_count": 0,
    "rating_overall": 0
  },
  {
    "name": "Uğur Gedik",
    "specialty": "Pharmacy",
    "address": ", Adana",
    "latitude": 36.9851429,
    "longitude": 35.2625764,
    "country_code": "TR",
    "is_active": true,
    "review_count": 0,
    "rating_overall": 0
  },
  {
    "name": "Soytoprak Eczanesi",
    "specialty": "Pharmacy",
    "address": "Adana, Adana",
    "latitude": 36.9878277,
    "longitude": 35.2748308,
    "country_code": "TR",
    "is_active": true,
    "review_count": 0,
    "rating_overall": 0
  },
  {
    "name": "Özdoğru Eczanesi",
    "specialty": "Pharmacy",
    "address": ", Adana",
    "latitude": 36.9879549,
    "longitude": 35.2750295,
    "country_code": "TR",
    "is_active": true,
    "review_count": 0,
    "rating_overall": 0
  },
  {
    "name": "Emin Eczanesi",
    "specialty": "Pharmacy",
    "address": ", Adana",
    "latitude": 37.0007873,
    "longitude": 35.2705905,
    "country_code": "TR",
    "is_active": true,
    "review_count": 0,
    "rating_overall": 0
  },
  {
    "name": "Çağdaş Eczanesi",
    "specialty": "Pharmacy",
    "address": ", Adana",
    "latitude": 36.9881449,
    "longitude": 35.2750137,
    "country_code": "TR",
    "is_active": true,
    "review_count": 0,
    "rating_overall": 0
  },
  {
    "name": "Tekin Eczanesi",
    "specialty": "Pharmacy",
    "address": ", Adana",
    "latitude": 37.0020947,
    "longitude": 35.2719462,
    "country_code": "TR",
    "is_active": true,
    "review_count": 0,
    "rating_overall": 0
  },
  {
    "name": "Seçgin Eczanesi",
    "specialty": "Pharmacy",
    "address": ", Adana",
    "latitude": 36.9882613,
    "longitude": 35.2747895,
    "country_code": "TR",
    "is_active": true,
    "review_count": 0,
    "rating_overall": 0
  },
  {
    "name": "Fevzipaşa Eczanesi",
    "specialty": "Pharmacy",
    "address": ", Adana",
    "latitude": 37.0005978,
    "longitude": 35.2711844,
    "country_code": "TR",
    "is_active": true,
    "review_count": 0,
    "rating_overall": 0
  },
  {
    "name": "Havva Eczanesi",
    "specialty": "Pharmacy",
    "address": ", Adana",
    "latitude": 37.0024866,
    "longitude": 35.2721646,
    "country_code": "TR",
    "is_active": true,
    "review_count": 0,
    "rating_overall": 0
  },
  {
    "name": "Aydınlar Eczanesi",
    "specialty": "Pharmacy",
    "address": ", Adana",
    "latitude": 37.0026901,
    "longitude": 35.272013,
    "country_code": "TR",
    "is_active": true,
    "review_count": 0,
    "rating_overall": 0
  },
  {
    "name": "Üstündağ Eczanesi",
    "specialty": "Pharmacy",
    "address": ", Adana",
    "latitude": 37.0042938,
    "longitude": 35.2762206,
    "country_code": "TR",
    "is_active": true,
    "review_count": 0,
    "rating_overall": 0
  },
  {
    "name": "Merkez Eczanesi",
    "specialty": "Pharmacy",
    "address": "Adana, Adana",
    "latitude": 37.0043349,
    "longitude": 35.2759161,
    "country_code": "TR",
    "is_active": true,
    "review_count": 0,
    "rating_overall": 0
  },
  {
    "name": "Nilüfer Eczanesi",
    "specialty": "Pharmacy",
    "address": ", Adana",
    "latitude": 37.0133132,
    "longitude": 35.2795181,
    "country_code": "TR",
    "is_active": true,
    "review_count": 0,
    "rating_overall": 0
  },
  {
    "name": "Sena Eczanesi",
    "specialty": "Pharmacy",
    "address": ", Adana",
    "latitude": 37.0131035,
    "longitude": 35.2799341,
    "country_code": "TR",
    "is_active": true,
    "review_count": 0,
    "rating_overall": 0
  },
  {
    "name": "Kelebek Eczanesi",
    "specialty": "Pharmacy",
    "address": ", Adana",
    "latitude": 37.0218465,
    "longitude": 35.277735,
    "country_code": "TR",
    "is_active": true,
    "review_count": 0,
    "rating_overall": 0
  },
  {
    "name": "Asya Eczanesi",
    "specialty": "Pharmacy",
    "address": ", Adana",
    "latitude": 37.0283708,
    "longitude": 35.2751566,
    "country_code": "TR",
    "is_active": true,
    "review_count": 0,
    "rating_overall": 0
  },
  {
    "name": "İkibinevler Eczanesi",
    "specialty": "Pharmacy",
    "address": ", Adana",
    "latitude": 37.0291751,
    "longitude": 35.2690494,
    "country_code": "TR",
    "is_active": true,
    "review_count": 0,
    "rating_overall": 0
  },
  {
    "name": "Rengin Eczanesi",
    "specialty": "Pharmacy",
    "address": ", Adana",
    "latitude": 37.0292054,
    "longitude": 35.2680018,
    "country_code": "TR",
    "is_active": true,
    "review_count": 0,
    "rating_overall": 0
  },
  {
    "name": "Gündüz Eczanesi",
    "specialty": "Pharmacy",
    "address": ", Adana",
    "latitude": 37.0332596,
    "longitude": 35.2599682,
    "country_code": "TR",
    "is_active": true,
    "review_count": 0,
    "rating_overall": 0
  },
  {
    "name": "Aytül Eczanesi",
    "specialty": "Pharmacy",
    "address": ", Adana",
    "latitude": 37.0415164,
    "longitude": 35.2598817,
    "country_code": "TR",
    "is_active": true,
    "review_count": 0,
    "rating_overall": 0
  },
  {
    "name": "100. Yıl Eczanesi",
    "specialty": "Pharmacy",
    "address": ", Adana",
    "latitude": 37.041613,
    "longitude": 35.2521735,
    "country_code": "TR",
    "is_active": true,
    "review_count": 0,
    "rating_overall": 0
  },
  {
    "name": "Derman Eczanesi",
    "specialty": "Pharmacy",
    "address": ", Adana",
    "latitude": 37.0413181,
    "longitude": 35.2500872,
    "country_code": "TR",
    "is_active": true,
    "review_count": 0,
    "rating_overall": 0
  },
  {
    "name": "Nil Bera Eczanesi",
    "specialty": "Pharmacy",
    "address": "Adana, Adana",
    "latitude": 37.0413026,
    "longitude": 35.2428928,
    "country_code": "TR",
    "is_active": true,
    "review_count": 0,
    "rating_overall": 0
  },
  {
    "name": "Cemre Eczanesi",
    "specialty": "Pharmacy",
    "address": ", Adana",
    "latitude": 37.0285343,
    "longitude": 35.2428852,
    "country_code": "TR",
    "is_active": true,
    "review_count": 0,
    "rating_overall": 0
  },
  {
    "name": "Safa Eczanesi",
    "specialty": "Pharmacy",
    "address": ", Adana",
    "latitude": 37.0386426,
    "longitude": 35.2689664,
    "country_code": "TR",
    "is_active": true,
    "review_count": 0,
    "rating_overall": 0
  },
  {
    "name": "Özdemir Eczanesi",
    "specialty": "Pharmacy",
    "address": ", Adana",
    "latitude": 37.0413644,
    "longitude": 35.2522725,
    "country_code": "TR",
    "is_active": true,
    "review_count": 0,
    "rating_overall": 0
  },
  {
    "name": "Gülgün Eczanesi",
    "specialty": "Pharmacy",
    "address": ", Adana",
    "latitude": 37.0417489,
    "longitude": 35.2523647,
    "country_code": "TR",
    "is_active": true,
    "review_count": 0,
    "rating_overall": 0
  },
  {
    "name": "Hasan Akçınar Eczanesi",
    "specialty": "Pharmacy",
    "address": ", Adana",
    "latitude": 37.0286934,
    "longitude": 35.2466197,
    "country_code": "TR",
    "is_active": true,
    "review_count": 0,
    "rating_overall": 0
  },
  {
    "name": "Mermerler Eczanesi",
    "specialty": "Pharmacy",
    "address": ", Adana",
    "latitude": 37.0470813,
    "longitude": 35.2643963,
    "country_code": "TR",
    "is_active": true,
    "review_count": 0,
    "rating_overall": 0
  },
  {
    "name": "Hürü Eczanesi",
    "specialty": "Pharmacy",
    "address": ", Adana",
    "latitude": 37.0328296,
    "longitude": 35.2786591,
    "country_code": "TR",
    "is_active": true,
    "review_count": 0,
    "rating_overall": 0
  },
  {
    "name": "Umut Eczanesi",
    "specialty": "Pharmacy",
    "address": ", Adana",
    "latitude": 37.013474,
    "longitude": 35.2788319,
    "country_code": "TR",
    "is_active": true,
    "review_count": 0,
    "rating_overall": 0
  },
  {
    "name": "Caglayan Eczanesi",
    "specialty": "Pharmacy",
    "address": "Adana, Adana",
    "latitude": 37.0130202,
    "longitude": 35.2801438,
    "country_code": "TR",
    "is_active": true,
    "review_count": 0,
    "rating_overall": 0
  },
  {
    "name": "Botanik Eczanesi",
    "specialty": "Pharmacy",
    "address": ", Adana",
    "latitude": 37.0162627,
    "longitude": 35.2606936,
    "country_code": "TR",
    "is_active": true,
    "review_count": 0,
    "rating_overall": 0
  },
  {
    "name": "Burak Halaç Eczanesi",
    "specialty": "Pharmacy",
    "address": ", Adana",
    "latitude": 37.019316,
    "longitude": 35.2615008,
    "country_code": "TR",
    "is_active": true,
    "review_count": 0,
    "rating_overall": 0
  },
  {
    "name": "Çolakoğlu Eczanesi",
    "specialty": "Pharmacy",
    "address": ", Adana",
    "latitude": 37.0214289,
    "longitude": 35.2578307,
    "country_code": "TR",
    "is_active": true,
    "review_count": 0,
    "rating_overall": 0
  },
  {
    "name": "Başak Eczanesi",
    "specialty": "Pharmacy",
    "address": ", Adana",
    "latitude": 37.0211043,
    "longitude": 35.272744,
    "country_code": "TR",
    "is_active": true,
    "review_count": 0,
    "rating_overall": 0
  },
  {
    "name": "Tuğçe Oral Eczanesi",
    "specialty": "Pharmacy",
    "address": ", Adana",
    "latitude": 37.0238915,
    "longitude": 35.2653734,
    "country_code": "TR",
    "is_active": true,
    "review_count": 0,
    "rating_overall": 0
  },
  {
    "name": "Uçar Eczanesi",
    "specialty": "Pharmacy",
    "address": ", Adana",
    "latitude": 37.0243474,
    "longitude": 35.2652878,
    "country_code": "TR",
    "is_active": true,
    "review_count": 0,
    "rating_overall": 0
  },
  {
    "name": "Yağız Eczanesi",
    "specialty": "Pharmacy",
    "address": ", Adana",
    "latitude": 37.0226711,
    "longitude": 35.2741759,
    "country_code": "TR",
    "is_active": true,
    "review_count": 0,
    "rating_overall": 0
  },
  {
    "name": "Pozitif Eczanesi",
    "specialty": "Pharmacy",
    "address": ", Adana",
    "latitude": 37.0227147,
    "longitude": 35.2744216,
    "country_code": "TR",
    "is_active": true,
    "review_count": 0,
    "rating_overall": 0
  },
  {
    "name": "Akdağ Eczanesi",
    "specialty": "Pharmacy",
    "address": ", Adana",
    "latitude": 37.0229015,
    "longitude": 35.2740085,
    "country_code": "TR",
    "is_active": true,
    "review_count": 0,
    "rating_overall": 0
  },
  {
    "name": "Filazi Eczanesi",
    "specialty": "Pharmacy",
    "address": ", Adana",
    "latitude": 37.0274347,
    "longitude": 35.2743969,
    "country_code": "TR",
    "is_active": true,
    "review_count": 0,
    "rating_overall": 0
  },
  {
    "name": "Burçin Küçük Eczanesi",
    "specialty": "Pharmacy",
    "address": ", Adana",
    "latitude": 37.0291912,
    "longitude": 35.2685449,
    "country_code": "TR",
    "is_active": true,
    "review_count": 0,
    "rating_overall": 0
  },
  {
    "name": "Gozu Eczanesi",
    "specialty": "Pharmacy",
    "address": "Adana, Adana",
    "latitude": 37.0288887,
    "longitude": 35.2676344,
    "country_code": "TR",
    "is_active": true,
    "review_count": 0,
    "rating_overall": 0
  },
  {
    "name": "Servet Eczanesi",
    "specialty": "Pharmacy",
    "address": ", Adana",
    "latitude": 37.0417329,
    "longitude": 35.2598475,
    "country_code": "TR",
    "is_active": true,
    "review_count": 0,
    "rating_overall": 0
  },
  {
    "name": "Selin Akbıyık Eczanesi",
    "specialty": "Pharmacy",
    "address": ", Adana",
    "latitude": 37.0350126,
    "longitude": 35.2479472,
    "country_code": "TR",
    "is_active": true,
    "review_count": 0,
    "rating_overall": 0
  },
  {
    "name": "Denizkızı Eczanesi",
    "specialty": "Pharmacy",
    "address": ", Adana",
    "latitude": 37.0347943,
    "longitude": 35.2461433,
    "country_code": "TR",
    "is_active": true,
    "review_count": 0,
    "rating_overall": 0
  },
  {
    "name": "Bahçeşehir Eczanesi",
    "specialty": "Pharmacy",
    "address": ", Adana",
    "latitude": 37.0294164,
    "longitude": 35.245809,
    "country_code": "TR",
    "is_active": true,
    "review_count": 0,
    "rating_overall": 0
  },
  {
    "name": "Deniz Eczanesi",
    "specialty": "Pharmacy",
    "address": ", Adana",
    "latitude": 37.0495476,
    "longitude": 35.2718576,
    "country_code": "TR",
    "is_active": true,
    "review_count": 0,
    "rating_overall": 0
  },
  {
    "name": "Safir Eczanesi",
    "specialty": "Pharmacy",
    "address": ", Adana",
    "latitude": 37.046077,
    "longitude": 35.2768733,
    "country_code": "TR",
    "is_active": true,
    "review_count": 0,
    "rating_overall": 0
  },
  {
    "name": "Şüheda Eczanesi",
    "specialty": "Pharmacy",
    "address": ", Adana",
    "latitude": 37.0326073,
    "longitude": 35.2789411,
    "country_code": "TR",
    "is_active": true,
    "review_count": 0,
    "rating_overall": 0
  },
  {
    "name": "Huzurevleri Eczanesi",
    "specialty": "Pharmacy",
    "address": "Adana, Adana",
    "latitude": 37.0364389,
    "longitude": 35.2822985,
    "country_code": "TR",
    "is_active": true,
    "review_count": 0,
    "rating_overall": 0
  },
  {
    "name": "Zeynep Eczanesi",
    "specialty": "Pharmacy",
    "address": ", Adana",
    "latitude": 37.036085,
    "longitude": 35.2821653,
    "country_code": "TR",
    "is_active": true,
    "review_count": 0,
    "rating_overall": 0
  },
  {
    "name": "Kerem",
    "specialty": "Pharmacy",
    "address": ", Adana",
    "latitude": 37.03919,
    "longitude": 35.288934,
    "country_code": "TR",
    "is_active": true,
    "review_count": 0,
    "rating_overall": 0
  },
  {
    "name": "Kayra Eczanesi",
    "specialty": "Pharmacy",
    "address": ", Adana",
    "latitude": 37.0390635,
    "longitude": 35.2875141,
    "country_code": "TR",
    "is_active": true,
    "review_count": 0,
    "rating_overall": 0
  },
  {
    "name": "Fatih Eren Eczanesi",
    "specialty": "Pharmacy",
    "address": ", Adana",
    "latitude": 37.0106795,
    "longitude": 35.2646516,
    "country_code": "TR",
    "is_active": true,
    "review_count": 0,
    "rating_overall": 0
  },
  {
    "name": "Burçinin Eczanesi",
    "specialty": "Pharmacy",
    "address": ", Adana",
    "latitude": 37.0209555,
    "longitude": 35.2678934,
    "country_code": "TR",
    "is_active": true,
    "review_count": 0,
    "rating_overall": 0
  },
  {
    "name": "Saygı Eczanesi",
    "specialty": "Pharmacy",
    "address": "Adana, Adana",
    "latitude": 37.0334798,
    "longitude": 35.2607971,
    "country_code": "TR",
    "is_active": true,
    "review_count": 0,
    "rating_overall": 0
  },
  {
    "name": "Kınalı Eczanesi",
    "specialty": "Pharmacy",
    "address": ", Adana",
    "latitude": 37.0284717,
    "longitude": 35.2433417,
    "country_code": "TR",
    "is_active": true,
    "review_count": 0,
    "rating_overall": 0
  },
  {
    "name": "Melisa Eczanesi",
    "specialty": "Pharmacy",
    "address": ", Adana",
    "latitude": 37.050201,
    "longitude": 35.2638358,
    "country_code": "TR",
    "is_active": true,
    "review_count": 0,
    "rating_overall": 0
  },
  {
    "name": "Kubilay Eczanesi",
    "specialty": "Pharmacy",
    "address": ", Adana",
    "latitude": 37.0502614,
    "longitude": 35.2636185,
    "country_code": "TR",
    "is_active": true,
    "review_count": 0,
    "rating_overall": 0
  },
  {
    "name": "Oztan Pharmacy",
    "specialty": "Pharmacy",
    "address": "Gaziantep, Adana",
    "latitude": 37.0502757,
    "longitude": 35.2634354,
    "country_code": "TR",
    "is_active": true,
    "review_count": 0,
    "rating_overall": 0
  },
  {
    "name": "Gazi Eczanesi",
    "specialty": "Pharmacy",
    "address": ", Adana",
    "latitude": 37.0394669,
    "longitude": 35.2736382,
    "country_code": "TR",
    "is_active": true,
    "review_count": 0,
    "rating_overall": 0
  },
  {
    "name": "Annem Eczanesi",
    "specialty": "Pharmacy",
    "address": ", Adana",
    "latitude": 37.0392567,
    "longitude": 35.288074,
    "country_code": "TR",
    "is_active": true,
    "review_count": 0,
    "rating_overall": 0
  },
  {
    "name": "Şükran Eczanesi",
    "specialty": "Pharmacy",
    "address": ", Adana",
    "latitude": 37.0288155,
    "longitude": 35.2685292,
    "country_code": "TR",
    "is_active": true,
    "review_count": 0,
    "rating_overall": 0
  },
  {
    "name": "İpek Eczanesi",
    "specialty": "Pharmacy",
    "address": ", Adana",
    "latitude": 37.0286538,
    "longitude": 35.2430502,
    "country_code": "TR",
    "is_active": true,
    "review_count": 0,
    "rating_overall": 0
  },
  {
    "name": "Erdinç Eczanesi",
    "specialty": "Pharmacy",
    "address": "Adana, Adana",
    "latitude": 37.0456967,
    "longitude": 35.2639181,
    "country_code": "TR",
    "is_active": true,
    "review_count": 0,
    "rating_overall": 0
  },
  {
    "name": "Deniz Mert Eczanesi",
    "specialty": "Pharmacy",
    "address": ", Adana",
    "latitude": 37.0443384,
    "longitude": 35.2775872,
    "country_code": "TR",
    "is_active": true,
    "review_count": 0,
    "rating_overall": 0
  },
  {
    "name": "Aşlamacı Eczanesi",
    "specialty": "Pharmacy",
    "address": ", Adana",
    "latitude": 37.0360399,
    "longitude": 35.2819982,
    "country_code": "TR",
    "is_active": true,
    "review_count": 0,
    "rating_overall": 0
  },
  {
    "name": "Barkın Eczanesi",
    "specialty": "Pharmacy",
    "address": ", Adana",
    "latitude": 37.042029,
    "longitude": 35.2597836,
    "country_code": "TR",
    "is_active": true,
    "review_count": 0,
    "rating_overall": 0
  },
  {
    "name": "Feyza Eczanesi",
    "specialty": "Pharmacy",
    "address": "Adana, Adana",
    "latitude": 37.042904,
    "longitude": 35.2832254,
    "country_code": "TR",
    "is_active": true,
    "review_count": 0,
    "rating_overall": 0
  },
  {
    "name": "Kucukoglu Eczanesi",
    "specialty": "Pharmacy",
    "address": "Adana, Adana",
    "latitude": 37.0434606,
    "longitude": 35.2830538,
    "country_code": "TR",
    "is_active": true,
    "review_count": 0,
    "rating_overall": 0
  },
  {
    "name": "Zerrin Eczanesi",
    "specialty": "Pharmacy",
    "address": ", Adana",
    "latitude": 37.0431259,
    "longitude": 35.2825525,
    "country_code": "TR",
    "is_active": true,
    "review_count": 0,
    "rating_overall": 0
  },
  {
    "name": "Acembekiroğlu Eczanesi",
    "specialty": "Pharmacy",
    "address": ", Adana",
    "latitude": 37.0517082,
    "longitude": 35.2842463,
    "country_code": "TR",
    "is_active": true,
    "review_count": 0,
    "rating_overall": 0
  },
  {
    "name": "Saltanlar Eczanesi",
    "specialty": "Pharmacy",
    "address": ", Adana",
    "latitude": 37.0427739,
    "longitude": 35.2826218,
    "country_code": "TR",
    "is_active": true,
    "review_count": 0,
    "rating_overall": 0
  },
  {
    "name": "Taştepe Eczanesi",
    "specialty": "Pharmacy",
    "address": ", Adana",
    "latitude": 37.0531879,
    "longitude": 35.2844081,
    "country_code": "TR",
    "is_active": true,
    "review_count": 0,
    "rating_overall": 0
  },
  {
    "name": "Avan Eczanesi",
    "specialty": "Pharmacy",
    "address": ", Adana",
    "latitude": 37.0527653,
    "longitude": 35.2797239,
    "country_code": "TR",
    "is_active": true,
    "review_count": 0,
    "rating_overall": 0
  },
  {
    "name": "Duygu Eczanesi",
    "specialty": "Pharmacy",
    "address": ", Adana",
    "latitude": 37.0523942,
    "longitude": 35.2795646,
    "country_code": "TR",
    "is_active": true,
    "review_count": 0,
    "rating_overall": 0
  },
  {
    "name": "Sağlık Eczanesi",
    "specialty": "Pharmacy",
    "address": "Alparslan Türkeş Bulvarı Çukurova, Adana",
    "latitude": 37.0437745,
    "longitude": 35.2829897,
    "country_code": "TR",
    "is_active": true,
    "review_count": 0,
    "rating_overall": 0
  },
  {
    "name": "Paşam Eczanesi",
    "specialty": "Pharmacy",
    "address": ", Adana",
    "latitude": 37.0529244,
    "longitude": 35.2848221,
    "country_code": "TR",
    "is_active": true,
    "review_count": 0,
    "rating_overall": 0
  },
  {
    "name": "Belgin Eczanesi",
    "specialty": "Pharmacy",
    "address": "Adana, Adana",
    "latitude": 37.0527605,
    "longitude": 35.285123,
    "country_code": "TR",
    "is_active": true,
    "review_count": 0,
    "rating_overall": 0
  },
  {
    "name": "Doğa Eczanesi",
    "specialty": "Pharmacy",
    "address": ", Adana",
    "latitude": 37.0530548,
    "longitude": 35.2845731,
    "country_code": "TR",
    "is_active": true,
    "review_count": 0,
    "rating_overall": 0
  },
  {
    "name": "Gülin Eczanesi",
    "specialty": "Pharmacy",
    "address": ", Adana",
    "latitude": 37.0526281,
    "longitude": 35.2824177,
    "country_code": "TR",
    "is_active": true,
    "review_count": 0,
    "rating_overall": 0
  },
  {
    "name": "Çelik Eczanesi",
    "specialty": "Pharmacy",
    "address": ", Adana",
    "latitude": 37.0552926,
    "longitude": 35.2752635,
    "country_code": "TR",
    "is_active": true,
    "review_count": 0,
    "rating_overall": 0
  },
  {
    "name": "Kunt Eczanesi",
    "specialty": "Pharmacy",
    "address": ", Adana",
    "latitude": 37.0525903,
    "longitude": 35.2809602,
    "country_code": "TR",
    "is_active": true,
    "review_count": 0,
    "rating_overall": 0
  },
  {
    "name": "Kurttepe Eczanesi",
    "specialty": "Pharmacy",
    "address": ", Adana",
    "latitude": 37.0551604,
    "longitude": 35.2753668,
    "country_code": "TR",
    "is_active": true,
    "review_count": 0,
    "rating_overall": 0
  },
  {
    "name": "Elif Elitaş Eczanesi",
    "specialty": "Pharmacy",
    "address": ", Adana",
    "latitude": 37.0525773,
    "longitude": 35.2778101,
    "country_code": "TR",
    "is_active": true,
    "review_count": 0,
    "rating_overall": 0
  },
  {
    "name": "Ebru Eczanesi",
    "specialty": "Pharmacy",
    "address": "Adana, Adana",
    "latitude": 37.0548286,
    "longitude": 35.2761945,
    "country_code": "TR",
    "is_active": true,
    "review_count": 0,
    "rating_overall": 0
  },
  {
    "name": "Başakcan Eczanesi",
    "specialty": "Pharmacy",
    "address": ", Adana",
    "latitude": 37.0554405,
    "longitude": 35.2751692,
    "country_code": "TR",
    "is_active": true,
    "review_count": 0,
    "rating_overall": 0
  },
  {
    "name": "Abacı Eczanesi",
    "specialty": "Pharmacy",
    "address": ", Adana",
    "latitude": 37.0535087,
    "longitude": 35.273611,
    "country_code": "TR",
    "is_active": true,
    "review_count": 0,
    "rating_overall": 0
  },
  {
    "name": "Yaser Canpolat Eczanesi",
    "specialty": "Pharmacy",
    "address": ", Adana",
    "latitude": 37.0558863,
    "longitude": 35.2750882,
    "country_code": "TR",
    "is_active": true,
    "review_count": 0,
    "rating_overall": 0
  },
  {
    "name": "Muhammed Ali Eczanesi",
    "specialty": "Pharmacy",
    "address": ", Adana",
    "latitude": 37.0539341,
    "longitude": 35.2741231,
    "country_code": "TR",
    "is_active": true,
    "review_count": 0,
    "rating_overall": 0
  },
  {
    "name": "Seda Olcar Eczanesi",
    "specialty": "Pharmacy",
    "address": ", Adana",
    "latitude": 37.0538729,
    "longitude": 35.2733382,
    "country_code": "TR",
    "is_active": true,
    "review_count": 0,
    "rating_overall": 0
  },
  {
    "name": "Ece Eczanesi",
    "specialty": "Pharmacy",
    "address": ", Adana",
    "latitude": 37.0539767,
    "longitude": 35.2735184,
    "country_code": "TR",
    "is_active": true,
    "review_count": 0,
    "rating_overall": 0
  },
  {
    "name": "Sevincler Eczanesi",
    "specialty": "Pharmacy",
    "address": "Adana, Adana",
    "latitude": 37.05416,
    "longitude": 35.2738043,
    "country_code": "TR",
    "is_active": true,
    "review_count": 0,
    "rating_overall": 0
  },
  {
    "name": "Figen Eczanesi",
    "specialty": "Pharmacy",
    "address": "Adana, Adana",
    "latitude": 37.0595687,
    "longitude": 35.2807863,
    "country_code": "TR",
    "is_active": true,
    "review_count": 0,
    "rating_overall": 0
  },
  {
    "name": "Ceylan Eczanesi",
    "specialty": "Pharmacy",
    "address": ", Adana",
    "latitude": 37.0596644,
    "longitude": 35.2807494,
    "country_code": "TR",
    "is_active": true,
    "review_count": 0,
    "rating_overall": 0
  },
  {
    "name": "Öğretmenoğlu Eczanesi",
    "specialty": "Pharmacy",
    "address": ", Adana",
    "latitude": 37.0599878,
    "longitude": 35.2806599,
    "country_code": "TR",
    "is_active": true,
    "review_count": 0,
    "rating_overall": 0
  },
  {
    "name": "Barbaros Eczanesi",
    "specialty": "Pharmacy",
    "address": ", Adana",
    "latitude": 37.0528558,
    "longitude": 35.2907834,
    "country_code": "TR",
    "is_active": true,
    "review_count": 0,
    "rating_overall": 0
  },
  {
    "name": "Bolayırlı Eczanesi",
    "specialty": "Pharmacy",
    "address": "Adnan Kahveci Bulvarı Adana, Adana",
    "latitude": 37.0345859,
    "longitude": 35.3197891,
    "country_code": "TR",
    "is_active": true,
    "review_count": 0,
    "rating_overall": 0
  },
  {
    "name": "Meltem Aydın Eczanesi",
    "specialty": "Pharmacy",
    "address": ", Adana",
    "latitude": 37.0366289,
    "longitude": 35.3158313,
    "country_code": "TR",
    "is_active": true,
    "review_count": 0,
    "rating_overall": 0
  },
  {
    "name": "Kesilmez Eczanesi",
    "specialty": "Pharmacy",
    "address": ", Adana",
    "latitude": 37.0322928,
    "longitude": 35.3152335,
    "country_code": "TR",
    "is_active": true,
    "review_count": 0,
    "rating_overall": 0
  },
  {
    "name": "Gökpınar Eczanesi",
    "specialty": "Pharmacy",
    "address": ", Adana",
    "latitude": 37.0440976,
    "longitude": 35.3107573,
    "country_code": "TR",
    "is_active": true,
    "review_count": 0,
    "rating_overall": 0
  },
  {
    "name": "Sinem Eczanesi",
    "specialty": "Pharmacy",
    "address": ", Adana",
    "latitude": 37.0416436,
    "longitude": 35.3130603,
    "country_code": "TR",
    "is_active": true,
    "review_count": 0,
    "rating_overall": 0
  },
  {
    "name": "Mete Eczanesi",
    "specialty": "Pharmacy",
    "address": ", Adana",
    "latitude": 37.0468727,
    "longitude": 35.3033425,
    "country_code": "TR",
    "is_active": true,
    "review_count": 0,
    "rating_overall": 0
  },
  {
    "name": "Hülya Totik Eczanesi",
    "specialty": "Pharmacy",
    "address": ", Adana",
    "latitude": 37.0465701,
    "longitude": 35.3026589,
    "country_code": "TR",
    "is_active": true,
    "review_count": 0,
    "rating_overall": 0
  },
  {
    "name": "Pera Eczanesi",
    "specialty": "Pharmacy",
    "address": ", Adana",
    "latitude": 37.0485599,
    "longitude": 35.2933381,
    "country_code": "TR",
    "is_active": true,
    "review_count": 0,
    "rating_overall": 0
  },
  {
    "name": "Tuba Eczanesi",
    "specialty": "Pharmacy",
    "address": ", Adana",
    "latitude": 37.0319983,
    "longitude": 35.3123587,
    "country_code": "TR",
    "is_active": true,
    "review_count": 0,
    "rating_overall": 0
  },
  {
    "name": "Sevim Eczanesi",
    "specialty": "Pharmacy",
    "address": ", Adana",
    "latitude": 37.0338579,
    "longitude": 35.309448,
    "country_code": "TR",
    "is_active": true,
    "review_count": 0,
    "rating_overall": 0
  },
  {
    "name": "Uysal Eczanesi",
    "specialty": "Pharmacy",
    "address": ", Adana",
    "latitude": 37.0392498,
    "longitude": 35.3030884,
    "country_code": "TR",
    "is_active": true,
    "review_count": 0,
    "rating_overall": 0
  },
  {
    "name": "Yeni Hediye Eczanesi",
    "specialty": "Pharmacy",
    "address": ", Adana",
    "latitude": 37.0401312,
    "longitude": 35.3040387,
    "country_code": "TR",
    "is_active": true,
    "review_count": 0,
    "rating_overall": 0
  },
  {
    "name": "Pamuk Eczanesi",
    "specialty": "Pharmacy",
    "address": ", Adana",
    "latitude": 37.0414869,
    "longitude": 35.3036827,
    "country_code": "TR",
    "is_active": true,
    "review_count": 0,
    "rating_overall": 0
  },
  {
    "name": "Ateş Eczanesi",
    "specialty": "Pharmacy",
    "address": ", Adana",
    "latitude": 37.0452928,
    "longitude": 35.2982865,
    "country_code": "TR",
    "is_active": true,
    "review_count": 0,
    "rating_overall": 0
  },
  {
    "name": "Cansu Eczanesi",
    "specialty": "Pharmacy",
    "address": ", Adana",
    "latitude": 37.0462269,
    "longitude": 35.2946691,
    "country_code": "TR",
    "is_active": true,
    "review_count": 0,
    "rating_overall": 0
  },
  {
    "name": "Arda Eczanesi",
    "specialty": "Pharmacy",
    "address": "Adana, Adana",
    "latitude": 37.0482005,
    "longitude": 35.2893922,
    "country_code": "TR",
    "is_active": true,
    "review_count": 0,
    "rating_overall": 0
  },
  {
    "name": "Ayça Andaç Eczanesi",
    "specialty": "Pharmacy",
    "address": ", Adana",
    "latitude": 37.0488033,
    "longitude": 35.2854497,
    "country_code": "TR",
    "is_active": true,
    "review_count": 0,
    "rating_overall": 0
  },
  {
    "name": "Derya Can Eczanesi",
    "specialty": "Pharmacy",
    "address": ", Adana",
    "latitude": 37.0487199,
    "longitude": 35.2868194,
    "country_code": "TR",
    "is_active": true,
    "review_count": 0,
    "rating_overall": 0
  },
  {
    "name": "Elifcan Eczanesi",
    "specialty": "Pharmacy",
    "address": ", Adana",
    "latitude": 37.0350117,
    "longitude": 35.3167249,
    "country_code": "TR",
    "is_active": true,
    "review_count": 0,
    "rating_overall": 0
  },
  {
    "name": "Parlak Eczanesi",
    "specialty": "Pharmacy",
    "address": "Adana, Adana",
    "latitude": 37.0452697,
    "longitude": 35.3076942,
    "country_code": "TR",
    "is_active": true,
    "review_count": 0,
    "rating_overall": 0
  },
  {
    "name": "Öykü Eczanesi",
    "specialty": "Pharmacy",
    "address": ", Adana",
    "latitude": 37.0480661,
    "longitude": 35.3043145,
    "country_code": "TR",
    "is_active": true,
    "review_count": 0,
    "rating_overall": 0
  },
  {
    "name": "Kaptan Eczanesi",
    "specialty": "Pharmacy",
    "address": ", Adana",
    "latitude": 37.0462473,
    "longitude": 35.3038395,
    "country_code": "TR",
    "is_active": true,
    "review_count": 0,
    "rating_overall": 0
  },
  {
    "name": "Çimen Eczanesi",
    "specialty": "Pharmacy",
    "address": ", Adana",
    "latitude": 37.0487801,
    "longitude": 35.2982005,
    "country_code": "TR",
    "is_active": true,
    "review_count": 0,
    "rating_overall": 0
  },
  {
    "name": "Gultekin Eczanesi",
    "specialty": "Pharmacy",
    "address": "Adana, Adana",
    "latitude": 37.0484136,
    "longitude": 35.2966563,
    "country_code": "TR",
    "is_active": true,
    "review_count": 0,
    "rating_overall": 0
  },
  {
    "name": "Kübra Eczanesi",
    "specialty": "Pharmacy",
    "address": ", Adana",
    "latitude": 37.0493486,
    "longitude": 35.2940464,
    "country_code": "TR",
    "is_active": true,
    "review_count": 0,
    "rating_overall": 0
  },
  {
    "name": "Kahyalar Eczanesi",
    "specialty": "Pharmacy",
    "address": "Adana, Adana",
    "latitude": 37.0358658,
    "longitude": 35.3067266,
    "country_code": "TR",
    "is_active": true,
    "review_count": 0,
    "rating_overall": 0
  },
  {
    "name": "Engin Eczanesi",
    "specialty": "Pharmacy",
    "address": ", Adana",
    "latitude": 37.0395449,
    "longitude": 35.3028962,
    "country_code": "TR",
    "is_active": true,
    "review_count": 0,
    "rating_overall": 0
  },
  {
    "name": "Aysenem Eczanesi",
    "specialty": "Pharmacy",
    "address": ", Adana",
    "latitude": 37.0426469,
    "longitude": 35.3028558,
    "country_code": "TR",
    "is_active": true,
    "review_count": 0,
    "rating_overall": 0
  },
  {
    "name": "Kuzey Eczanesi",
    "specialty": "Pharmacy",
    "address": ", Adana",
    "latitude": 37.045338,
    "longitude": 35.2993257,
    "country_code": "TR",
    "is_active": true,
    "review_count": 0,
    "rating_overall": 0
  },
  {
    "name": "Ada Eczanesi",
    "specialty": "Pharmacy",
    "address": ", Adana",
    "latitude": 37.0453816,
    "longitude": 35.2987104,
    "country_code": "TR",
    "is_active": true,
    "review_count": 0,
    "rating_overall": 0
  },
  {
    "name": "Vefa Eczanesi",
    "specialty": "Pharmacy",
    "address": ", Adana",
    "latitude": 37.0454756,
    "longitude": 35.2989463,
    "country_code": "TR",
    "is_active": true,
    "review_count": 0,
    "rating_overall": 0
  },
  {
    "name": "Emre Eczanesi",
    "specialty": "Pharmacy",
    "address": ", Adana",
    "latitude": 37.0466561,
    "longitude": 35.2914372,
    "country_code": "TR",
    "is_active": true,
    "review_count": 0,
    "rating_overall": 0
  },
  {
    "name": "Mügem Eczanesi",
    "specialty": "Pharmacy",
    "address": ", Adana",
    "latitude": 37.0478532,
    "longitude": 35.2914454,
    "country_code": "TR",
    "is_active": true,
    "review_count": 0,
    "rating_overall": 0
  },
  {
    "name": "Nefes Eczanesi",
    "specialty": "Pharmacy",
    "address": ", Adana",
    "latitude": 37.0480615,
    "longitude": 35.2912832,
    "country_code": "TR",
    "is_active": true,
    "review_count": 0,
    "rating_overall": 0
  },
  {
    "name": "Nesrin Yılmaz Eczanesi;Elit Kardesler Gıda",
    "specialty": "Pharmacy",
    "address": "Adana, Adana",
    "latitude": 37.0482037,
    "longitude": 35.2896823,
    "country_code": "TR",
    "is_active": true,
    "review_count": 0,
    "rating_overall": 0
  },
  {
    "name": "Emir Eczanesi",
    "specialty": "Pharmacy",
    "address": ", Adana",
    "latitude": 37.0461383,
    "longitude": 35.287919,
    "country_code": "TR",
    "is_active": true,
    "review_count": 0,
    "rating_overall": 0
  },
  {
    "name": "Ayşem Eczanesi",
    "specialty": "Pharmacy",
    "address": ", Adana",
    "latitude": 37.0352104,
    "longitude": 35.316942,
    "country_code": "TR",
    "is_active": true,
    "review_count": 0,
    "rating_overall": 0
  },
  {
    "name": "Turgut Eczanesi",
    "specialty": "Pharmacy",
    "address": "Adnan Kahveci Bulvarı Çukurova, Adana",
    "latitude": 37.0328636,
    "longitude": 35.3161481,
    "country_code": "TR",
    "is_active": true,
    "review_count": 0,
    "rating_overall": 0
  },
  {
    "name": "Bulvar Eczanesi",
    "specialty": "Pharmacy",
    "address": "Gaziantep, Adana",
    "latitude": 37.040523,
    "longitude": 35.3142296,
    "country_code": "TR",
    "is_active": true,
    "review_count": 0,
    "rating_overall": 0
  },
  {
    "name": "Olgun Eczanesi",
    "specialty": "Pharmacy",
    "address": ", Adana",
    "latitude": 37.0415532,
    "longitude": 35.3126572,
    "country_code": "TR",
    "is_active": true,
    "review_count": 0,
    "rating_overall": 0
  },
  {
    "name": "Aşkım Eczanesi",
    "specialty": "Pharmacy",
    "address": "Adana, Adana",
    "latitude": 37.0426378,
    "longitude": 35.3117167,
    "country_code": "TR",
    "is_active": true,
    "review_count": 0,
    "rating_overall": 0
  },
  {
    "name": "Kara Eczanesi",
    "specialty": "Pharmacy",
    "address": ", Adana",
    "latitude": 37.0520909,
    "longitude": 35.2974308,
    "country_code": "TR",
    "is_active": true,
    "review_count": 0,
    "rating_overall": 0
  },
  {
    "name": "Burcu Toklu Eczanesi",
    "specialty": "Pharmacy",
    "address": ", Adana",
    "latitude": 37.0476948,
    "longitude": 35.2986139,
    "country_code": "TR",
    "is_active": true,
    "review_count": 0,
    "rating_overall": 0
  },
  {
    "name": "Çelen Eczanesi",
    "specialty": "Pharmacy",
    "address": ", Adana",
    "latitude": 37.0484855,
    "longitude": 35.2954276,
    "country_code": "TR",
    "is_active": true,
    "review_count": 0,
    "rating_overall": 0
  },
  {
    "name": "Aygül Eczanesi",
    "specialty": "Pharmacy",
    "address": ", Adana",
    "latitude": 37.0341629,
    "longitude": 35.3082317,
    "country_code": "TR",
    "is_active": true,
    "review_count": 0,
    "rating_overall": 0
  },
  {
    "name": "Akdeniz Eczanesi",
    "specialty": "Pharmacy",
    "address": ", Adana",
    "latitude": 37.0369847,
    "longitude": 35.3064546,
    "country_code": "TR",
    "is_active": true,
    "review_count": 0,
    "rating_overall": 0
  },
  {
    "name": "Kıymet Eczanesi",
    "specialty": "Pharmacy",
    "address": ", Adana",
    "latitude": 37.0424494,
    "longitude": 35.3023687,
    "country_code": "TR",
    "is_active": true,
    "review_count": 0,
    "rating_overall": 0
  },
  {
    "name": "Yasemen Eczanesi",
    "specialty": "Pharmacy",
    "address": ", Adana",
    "latitude": 37.0451579,
    "longitude": 35.2973277,
    "country_code": "TR",
    "is_active": true,
    "review_count": 0,
    "rating_overall": 0
  },
  {
    "name": "Gökçen Eczanesi",
    "specialty": "Pharmacy",
    "address": ", Adana",
    "latitude": 37.0401039,
    "longitude": 35.3144652,
    "country_code": "TR",
    "is_active": true,
    "review_count": 0,
    "rating_overall": 0
  },
  {
    "name": "Aile Eczanesi",
    "specialty": "Pharmacy",
    "address": ", Adana",
    "latitude": 37.0379563,
    "longitude": 35.3054092,
    "country_code": "TR",
    "is_active": true,
    "review_count": 0,
    "rating_overall": 0
  },
  {
    "name": "Özdeş Eczanesi",
    "specialty": "Pharmacy",
    "address": "Adana, Adana",
    "latitude": 37.0482433,
    "longitude": 35.2874421,
    "country_code": "TR",
    "is_active": true,
    "review_count": 0,
    "rating_overall": 0
  },
  {
    "name": "Yaşam Eczanesi",
    "specialty": "Pharmacy",
    "address": ", Adana",
    "latitude": 37.0351955,
    "longitude": 35.30935,
    "country_code": "TR",
    "is_active": true,
    "review_count": 0,
    "rating_overall": 0
  },
  {
    "name": "Uyan Eczanesi",
    "specialty": "Pharmacy",
    "address": ", Adana",
    "latitude": 37.0356849,
    "longitude": 35.307318,
    "country_code": "TR",
    "is_active": true,
    "review_count": 0,
    "rating_overall": 0
  },
  {
    "name": "Mahfesıgmaz Eczanesi",
    "specialty": "Pharmacy",
    "address": "Adana, Adana",
    "latitude": 37.0482136,
    "longitude": 35.2896855,
    "country_code": "TR",
    "is_active": true,
    "review_count": 0,
    "rating_overall": 0
  },
  {
    "name": "Kübra Köse Eczanesi",
    "specialty": "Pharmacy",
    "address": ", Adana",
    "latitude": 37.0497592,
    "longitude": 35.280024,
    "country_code": "TR",
    "is_active": true,
    "review_count": 0,
    "rating_overall": 0
  },
  {
    "name": "Hayal Eczanesi",
    "specialty": "Pharmacy",
    "address": "Adana, Adana",
    "latitude": 37.0391061,
    "longitude": 35.2946152,
    "country_code": "TR",
    "is_active": true,
    "review_count": 0,
    "rating_overall": 0
  },
  {
    "name": "Ardıç Eczanesi",
    "specialty": "Pharmacy",
    "address": ", Adana",
    "latitude": 37.0392177,
    "longitude": 35.2945011,
    "country_code": "TR",
    "is_active": true,
    "review_count": 0,
    "rating_overall": 0
  },
  {
    "name": "Selanik Eczanesi",
    "specialty": "Pharmacy",
    "address": ", Adana",
    "latitude": 37.0360865,
    "longitude": 35.2985562,
    "country_code": "TR",
    "is_active": true,
    "review_count": 0,
    "rating_overall": 0
  },
  {
    "name": "Kutbek Topaloğlu Eczanesi",
    "specialty": "Pharmacy",
    "address": ", Adana",
    "latitude": 37.0361342,
    "longitude": 35.3010922,
    "country_code": "TR",
    "is_active": true,
    "review_count": 0,
    "rating_overall": 0
  },
  {
    "name": "Yeni Toros Eczanesi",
    "specialty": "Pharmacy",
    "address": "Adana, Adana",
    "latitude": 37.0363803,
    "longitude": 35.3018477,
    "country_code": "TR",
    "is_active": true,
    "review_count": 0,
    "rating_overall": 0
  },
  {
    "name": "Güzide Eczanesi",
    "specialty": "Pharmacy",
    "address": ", Adana",
    "latitude": 37.0280529,
    "longitude": 35.2998472,
    "country_code": "TR",
    "is_active": true,
    "review_count": 0,
    "rating_overall": 0
  },
  {
    "name": "Yeşilyurt Eczanesi",
    "specialty": "Pharmacy",
    "address": "Adana, Adana",
    "latitude": 37.0235154,
    "longitude": 35.3059189,
    "country_code": "TR",
    "is_active": true,
    "review_count": 0,
    "rating_overall": 0
  },
  {
    "name": "Batu Eczanesi",
    "specialty": "Pharmacy",
    "address": "Adana, Adana",
    "latitude": 37.0388736,
    "longitude": 35.2948933,
    "country_code": "TR",
    "is_active": true,
    "review_count": 0,
    "rating_overall": 0
  },
  {
    "name": "Asil Eczanesi",
    "specialty": "Pharmacy",
    "address": ", Adana",
    "latitude": 37.0356247,
    "longitude": 35.2965618,
    "country_code": "TR",
    "is_active": true,
    "review_count": 0,
    "rating_overall": 0
  },
  {
    "name": "Ersel Eczanesi",
    "specialty": "Pharmacy",
    "address": ", Adana",
    "latitude": 37.0370572,
    "longitude": 35.2987622,
    "country_code": "TR",
    "is_active": true,
    "review_count": 0,
    "rating_overall": 0
  },
  {
    "name": "Emre Gün Eczanesi",
    "specialty": "Pharmacy",
    "address": "Gaziantep, Adana",
    "latitude": 37.0296946,
    "longitude": 35.2992928,
    "country_code": "TR",
    "is_active": true,
    "review_count": 0,
    "rating_overall": 0
  },
  {
    "name": "Yıldız Eczanesi",
    "specialty": "Pharmacy",
    "address": ", Adana",
    "latitude": 37.0283294,
    "longitude": 35.2990759,
    "country_code": "TR",
    "is_active": true,
    "review_count": 0,
    "rating_overall": 0
  },
  {
    "name": "Doğan Cem Eczanesi",
    "specialty": "Pharmacy",
    "address": ", Adana",
    "latitude": 37.0268173,
    "longitude": 35.3135924,
    "country_code": "TR",
    "is_active": true,
    "review_count": 0,
    "rating_overall": 0
  },
  {
    "name": "Mustafa Gül Eczanesi",
    "specialty": "Pharmacy",
    "address": ", Adana",
    "latitude": 37.035696,
    "longitude": 35.29583,
    "country_code": "TR",
    "is_active": true,
    "review_count": 0,
    "rating_overall": 0
  },
  {
    "name": "Beyza Yıldız Eczanesi",
    "specialty": "Pharmacy",
    "address": ", Adana",
    "latitude": 37.0356825,
    "longitude": 35.2961167,
    "country_code": "TR",
    "is_active": true,
    "review_count": 0,
    "rating_overall": 0
  },
  {
    "name": "Naturel Eczanesi",
    "specialty": "Pharmacy",
    "address": ", Adana",
    "latitude": 37.0355745,
    "longitude": 35.2972447,
    "country_code": "TR",
    "is_active": true,
    "review_count": 0,
    "rating_overall": 0
  },
  {
    "name": "Serkan Eczanesi",
    "specialty": "Pharmacy",
    "address": ", Adana",
    "latitude": 37.0363164,
    "longitude": 35.3016141,
    "country_code": "TR",
    "is_active": true,
    "review_count": 0,
    "rating_overall": 0
  },
  {
    "name": "Aslı Ulaş Eczanesi",
    "specialty": "Pharmacy",
    "address": ", Adana",
    "latitude": 37.0254215,
    "longitude": 35.3145981,
    "country_code": "TR",
    "is_active": true,
    "review_count": 0,
    "rating_overall": 0
  },
  {
    "name": "Kamer Eczanesi",
    "specialty": "Pharmacy",
    "address": "Adana, Adana",
    "latitude": 37.0362338,
    "longitude": 35.3013365,
    "country_code": "TR",
    "is_active": true,
    "review_count": 0,
    "rating_overall": 0
  },
  {
    "name": "İyi Günler Eczanesi",
    "specialty": "Pharmacy",
    "address": ", Adana",
    "latitude": 37.0309928,
    "longitude": 35.3009183,
    "country_code": "TR",
    "is_active": true,
    "review_count": 0,
    "rating_overall": 0
  },
  {
    "name": "Mavi Bulvar Eczanesi",
    "specialty": "Pharmacy",
    "address": ", Adana",
    "latitude": 37.0293134,
    "longitude": 35.3000602,
    "country_code": "TR",
    "is_active": true,
    "review_count": 0,
    "rating_overall": 0
  },
  {
    "name": "İtimat Eczanesi",
    "specialty": "Pharmacy",
    "address": ", Adana",
    "latitude": 37.0233993,
    "longitude": 35.3056643,
    "country_code": "TR",
    "is_active": true,
    "review_count": 0,
    "rating_overall": 0
  },
  {
    "name": "Özveren Eczanesi",
    "specialty": "Pharmacy",
    "address": "Malatya, Adana",
    "latitude": 37.0236753,
    "longitude": 35.3059594,
    "country_code": "TR",
    "is_active": true,
    "review_count": 0,
    "rating_overall": 0
  },
  {
    "name": "Serap Eczanesi",
    "specialty": "Pharmacy",
    "address": ", Adana",
    "latitude": 36.9949532,
    "longitude": 35.3196808,
    "country_code": "TR",
    "is_active": true,
    "review_count": 0,
    "rating_overall": 0
  },
  {
    "name": "Eren Eczanesi",
    "specialty": "Pharmacy",
    "address": ", Adana",
    "latitude": 36.9960519,
    "longitude": 35.3140136,
    "country_code": "TR",
    "is_active": true,
    "review_count": 0,
    "rating_overall": 0
  },
  {
    "name": "Burda Eczanesi",
    "specialty": "Pharmacy",
    "address": ", Adana",
    "latitude": 36.9933652,
    "longitude": 35.3088424,
    "country_code": "TR",
    "is_active": true,
    "review_count": 0,
    "rating_overall": 0
  },
  {
    "name": "Yeni Vilayet Eczanesi",
    "specialty": "Pharmacy",
    "address": ", Adana",
    "latitude": 37.001104,
    "longitude": 35.3118027,
    "country_code": "TR",
    "is_active": true,
    "review_count": 0,
    "rating_overall": 0
  },
  {
    "name": "Duran Eczanesi",
    "specialty": "Pharmacy",
    "address": ", Adana",
    "latitude": 37.0009425,
    "longitude": 35.3149849,
    "country_code": "TR",
    "is_active": true,
    "review_count": 0,
    "rating_overall": 0
  },
  {
    "name": "Zaimoğlu Eczanesi",
    "specialty": "Pharmacy",
    "address": ", Adana",
    "latitude": 36.9996703,
    "longitude": 35.3175233,
    "country_code": "TR",
    "is_active": true,
    "review_count": 0,
    "rating_overall": 0
  },
  {
    "name": "Huzur Eczanesi",
    "specialty": "Pharmacy",
    "address": ", Adana",
    "latitude": 36.9980851,
    "longitude": 35.3207175,
    "country_code": "TR",
    "is_active": true,
    "review_count": 0,
    "rating_overall": 0
  },
  {
    "name": "Sarıkaya Eczanesi",
    "specialty": "Pharmacy",
    "address": ", Adana",
    "latitude": 36.9948581,
    "longitude": 35.3146396,
    "country_code": "TR",
    "is_active": true,
    "review_count": 0,
    "rating_overall": 0
  },
  {
    "name": "Badem Eczanesi",
    "specialty": "Pharmacy",
    "address": ", Adana",
    "latitude": 36.9961625,
    "longitude": 35.3139822,
    "country_code": "TR",
    "is_active": true,
    "review_count": 0,
    "rating_overall": 0
  },
  {
    "name": "Sıtkı Esen Eczanesi",
    "specialty": "Pharmacy",
    "address": ", Adana",
    "latitude": 36.9967905,
    "longitude": 35.3115921,
    "country_code": "TR",
    "is_active": true,
    "review_count": 0,
    "rating_overall": 0
  },
  {
    "name": "Ziyapaşa Eczanesi",
    "specialty": "Pharmacy",
    "address": ", Adana",
    "latitude": 36.9979497,
    "longitude": 35.3207654,
    "country_code": "TR",
    "is_active": true,
    "review_count": 0,
    "rating_overall": 0
  },
  {
    "name": "Aktürk Eczanesi",
    "specialty": "Pharmacy",
    "address": ", Adana",
    "latitude": 36.9977851,
    "longitude": 35.3123876,
    "country_code": "TR",
    "is_active": true,
    "review_count": 0,
    "rating_overall": 0
  },
  {
    "name": "Şahindal Eczanesi",
    "specialty": "Pharmacy",
    "address": ", Adana",
    "latitude": 36.9994596,
    "longitude": 35.3176332,
    "country_code": "TR",
    "is_active": true,
    "review_count": 0,
    "rating_overall": 0
  },
  {
    "name": "Ataman Eczanesi",
    "specialty": "Pharmacy",
    "address": ", Adana",
    "latitude": 36.9941073,
    "longitude": 35.3253692,
    "country_code": "TR",
    "is_active": true,
    "review_count": 0,
    "rating_overall": 0
  },
  {
    "name": "Reşatbey Eczanesi",
    "specialty": "Pharmacy",
    "address": ", Adana",
    "latitude": 36.9958338,
    "longitude": 35.3296194,
    "country_code": "TR",
    "is_active": true,
    "review_count": 0,
    "rating_overall": 0
  },
  {
    "name": "Uğur Eczanesi",
    "specialty": "Pharmacy",
    "address": ", Adana",
    "latitude": 36.9978483,
    "longitude": 35.3267113,
    "country_code": "TR",
    "is_active": true,
    "review_count": 0,
    "rating_overall": 0
  },
  {
    "name": "Nur Stad Eczanesi",
    "specialty": "Pharmacy",
    "address": ", Adana",
    "latitude": 36.9980853,
    "longitude": 35.3284018,
    "country_code": "TR",
    "is_active": true,
    "review_count": 0,
    "rating_overall": 0
  },
  {
    "name": "Dilek Eczanesi",
    "specialty": "Pharmacy",
    "address": "Adana, Adana",
    "latitude": 36.999949,
    "longitude": 35.3225476,
    "country_code": "TR",
    "is_active": true,
    "review_count": 0,
    "rating_overall": 0
  },
  {
    "name": "Renin Eczanesi",
    "specialty": "Pharmacy",
    "address": ", Adana",
    "latitude": 36.9935876,
    "longitude": 35.3245221,
    "country_code": "TR",
    "is_active": true,
    "review_count": 0,
    "rating_overall": 0
  },
  {
    "name": "Tuba Çomoğlu Eczanesi",
    "specialty": "Pharmacy",
    "address": ", Adana",
    "latitude": 36.9952599,
    "longitude": 35.3247512,
    "country_code": "TR",
    "is_active": true,
    "review_count": 0,
    "rating_overall": 0
  },
  {
    "name": "Can Eczanesi",
    "specialty": "Pharmacy",
    "address": "62003 Sokak Seyhan, Adana",
    "latitude": 36.9945163,
    "longitude": 35.3269591,
    "country_code": "TR",
    "is_active": true,
    "review_count": 0,
    "rating_overall": 0
  },
  {
    "name": "İstanbulluoğlu Eczanesi",
    "specialty": "Pharmacy",
    "address": ", Adana",
    "latitude": 36.9960762,
    "longitude": 35.3262706,
    "country_code": "TR",
    "is_active": true,
    "review_count": 0,
    "rating_overall": 0
  },
  {
    "name": "Ersoylar Eczanesi",
    "specialty": "Pharmacy",
    "address": ", Adana",
    "latitude": 36.9982376,
    "longitude": 35.3288199,
    "country_code": "TR",
    "is_active": true,
    "review_count": 0,
    "rating_overall": 0
  },
  {
    "name": "Koçak Eczanesi",
    "specialty": "Pharmacy",
    "address": "Gaziantep, Adana",
    "latitude": 36.9984759,
    "longitude": 35.3227515,
    "country_code": "TR",
    "is_active": true,
    "review_count": 0,
    "rating_overall": 0
  },
  {
    "name": "Ceren Eczanesi",
    "specialty": "Pharmacy",
    "address": ", Adana",
    "latitude": 37.0015747,
    "longitude": 35.3229588,
    "country_code": "TR",
    "is_active": true,
    "review_count": 0,
    "rating_overall": 0
  },
  {
    "name": "Fehiman Eczanesi",
    "specialty": "Pharmacy",
    "address": ", Adana",
    "latitude": 36.9959453,
    "longitude": 35.3253491,
    "country_code": "TR",
    "is_active": true,
    "review_count": 0,
    "rating_overall": 0
  },
  {
    "name": "Şencan Eczanesi",
    "specialty": "Pharmacy",
    "address": "Gaziantep, Adana",
    "latitude": 36.9958238,
    "longitude": 35.328931,
    "country_code": "TR",
    "is_active": true,
    "review_count": 0,
    "rating_overall": 0
  },
  {
    "name": "Limon Eczanesi",
    "specialty": "Pharmacy",
    "address": ", Adana",
    "latitude": 36.997514,
    "longitude": 35.3305721,
    "country_code": "TR",
    "is_active": true,
    "review_count": 0,
    "rating_overall": 0
  },
  {
    "name": "Esin Kıraç Eczanesi",
    "specialty": "Pharmacy",
    "address": "Gazipaşa Bulvarı Seyhan, Adana",
    "latitude": 36.9990698,
    "longitude": 35.3260781,
    "country_code": "TR",
    "is_active": true,
    "review_count": 0,
    "rating_overall": 0
  },
  {
    "name": "Burcum Eczanesi",
    "specialty": "Pharmacy",
    "address": ", Adana",
    "latitude": 36.9987404,
    "longitude": 35.322967,
    "country_code": "TR",
    "is_active": true,
    "review_count": 0,
    "rating_overall": 0
  },
  {
    "name": "Yurdagül Eczanesi",
    "specialty": "Pharmacy",
    "address": ", Adana",
    "latitude": 36.998016,
    "longitude": 35.32788,
    "country_code": "TR",
    "is_active": true,
    "review_count": 0,
    "rating_overall": 0
  },
  {
    "name": "Muge Eczanesi",
    "specialty": "Pharmacy",
    "address": "Adana, Adana",
    "latitude": 36.9979986,
    "longitude": 35.330337,
    "country_code": "TR",
    "is_active": true,
    "review_count": 0,
    "rating_overall": 0
  },
  {
    "name": "Gazipaşa Eczanesi",
    "specialty": "Pharmacy",
    "address": ", Adana",
    "latitude": 36.9981763,
    "longitude": 35.3309027,
    "country_code": "TR",
    "is_active": true,
    "review_count": 0,
    "rating_overall": 0
  },
  {
    "name": "Yeni Eczanesi",
    "specialty": "Pharmacy",
    "address": ", Adana",
    "latitude": 36.9989992,
    "longitude": 35.3251523,
    "country_code": "TR",
    "is_active": true,
    "review_count": 0,
    "rating_overall": 0
  },
  {
    "name": "Şenöz Eczanesi",
    "specialty": "Pharmacy",
    "address": ", Adana",
    "latitude": 37.0021414,
    "longitude": 35.320269,
    "country_code": "TR",
    "is_active": true,
    "review_count": 0,
    "rating_overall": 0
  },
  {
    "name": "Mert Öztürk Eczanesi",
    "specialty": "Pharmacy",
    "address": ", Adana",
    "latitude": 37.0008024,
    "longitude": 35.3212856,
    "country_code": "TR",
    "is_active": true,
    "review_count": 0,
    "rating_overall": 0
  },
  {
    "name": "Melih Eczanesi",
    "specialty": "Pharmacy",
    "address": ", Adana",
    "latitude": 36.9807969,
    "longitude": 35.3320284,
    "country_code": "TR",
    "is_active": true,
    "review_count": 0,
    "rating_overall": 0
  },